,Name,Street,Crossing,Latitude,Longitude
0,JAMESTOWN BLVD AND SUN VALLEY VLG,JAMESTOWN BLVD,SUN VALLEY VLG,28.68110862,-81.40361544
1,ALOMA AVE AND ST ANDREWS BLVD,ALOMA AVE,ST ANDREWS BLVD,28.60096441,-81.3228024
2,W SR 434 AND CROSS ACCESS EASEMENT,W SR 434,CROSS ACCESS EASEMENT,28.69779041,-81.32305517
3,E 17TH ST AND CALIFORNIA AVE,E 17TH ST,CALIFORNIA AVE,28.2424469,-81.2946166
4,E SR 436 AND S HUNT CLUB BLVD,E SR 436,S HUNT CLUB BLVD,28.67002121,-81.45288917
5,N US HWY 17-92 AND RAVEN AVE,N US HWY 17-92,RAVEN AVE,28.71446138,-81.32484029
6,MONTGOMERY RD AND W SR 434,MONTGOMERY RD,W SR 434,28.68556613,-81.40259826
7,WEST TOWN PKY AND RAINER DR,WEST TOWN PKY,RAINER DR,28.65840246,-81.42602308
8,SR 436 AND REFLECTIONS CIR,SR 436,REFLECTIONS CIR,28.63018423,-81.31834676
9,GREENWOOD BLVD AND SAND POND RD,GREENWOOD BLVD,SAND POND RD,28.74337275,-81.36558045
10,N JOHN YOUNG PKY AND AMBERWOOD BLVD,N JOHN YOUNG PKY,AMBERWOOD BLVD,28.32225577,-81.41629162
11,SUMMERLIN AVE AND CELERY AVE,SUMMERLIN AVE,CELERY AVE,28.80095998,-81.25243618
12,W SR 46 AND N ELDER RD,W SR 46,N ELDER RD,28.81186199,-81.32661789
13,W LAKE MARY BLVD AND LIVE OAK BLVD,W LAKE MARY BLVD,LIVE OAK BLVD,28.75793151,-81.29135877
14,INTERNATIONAL PKY AND BRIDGEWATER DR,INTERNATIONAL PKY,BRIDGEWATER DR,28.76137454,-81.36614346
15,WYMORE RD AND W SR 436,WYMORE RD,W SR 436,28.66043079,-81.39048642
16,ALAFAYA TRL AND BURNSED PL,ALAFAYA TRL,BURNSED PL,28.63854962,-81.20819475
17,E ALTAMONTE DR AND ROBIN RD,E ALTAMONTE DR,ROBIN RD,28.66322719,-81.35483319
18,SR 436 AND CARMEL CIR,SR 436,CARMEL CIR,28.63554213,-81.32083752
19,SR 436 AND WINTER GREEN BLVD,SR 436,WINTER GREEN BLVD,28.6171059,-81.31218788
20,SR 436 AND GREENCASTLE BLVD,SR 436,GREENCASTLE BLVD,28.61680092,-81.31157488
21,SR 436 AND SEMORAN NORTH CIR,SR 436,SEMORAN NORTH CIR,28.62370419,-81.31483054
22,CELERY AVE AND ORANGE AVE,CELERY AVE,ORANGE AVE,28.80135378,-81.26016114
23,LAKE EMMA RD AND EXCHANGE PL,LAKE EMMA RD,EXCHANGE PL,28.74643573,-81.35915586
24,N SR 434 AND NEW ENGLAND CT,N SR 434,NEW ENGLAND CT,28.6707202,-81.41894289
25,JAMESTOWN BLVD AND GLADES CIR,JAMESTOWN BLVD,GLADES CIR,28.68100382,-81.41073564
26,S MELLONVILLE AVE AND E 2ND ST,S MELLONVILLE AVE,E 2ND ST,28.81008441,-81.25501011
27,US HWY 17-92 AND W 3RD ST,US HWY 17-92,W 3RD ST,28.80964216,-81.27306144
28,US HWY 17-92 AND HISTORIC GOLDSBORO BLVD,US HWY 17-92,HISTORIC GOLDSBORO BLVD,28.80023942,-81.27321594
29,LEE RD AND LOREN AVE,LEE RD,LOREN AVE,28.60609423,-81.36834901
30,ALOMA AVE AND STRATHY LN,ALOMA AVE,STRATHY LN,28.60074055,-81.32279902
31,E COLONIAL DR AND HERNDON AVE,E COLONIAL DR,HERNDON AVE,28.55329944,-81.33765647
32,W SR 434 AND RIDGE ST,W SR 434,RIDGE ST,28.69803579,-81.32537147
33,W SR 434 AND CROSS ACCESS EASEMENT,W SR 434,CROSS ACCESS EASEMENT,28.69800567,-81.32222361
34,W SR 434 AND BRIAR CLIFF DR,W SR 434,BRIAR CLIFF DR,28.68756388,-81.41066138
35,W SR 434 AND TUSKAWILLA RD,W SR 434,TUSKAWILLA RD,28.69632687,-81.26183169
36,W SR 46 AND N HOLLY AVE,W SR 46,N HOLLY AVE,28.81178188,-81.27551056
37,AAA DR AND INTERNATIONAL PKY,AAA DR,INTERNATIONAL PKY,28.770715,-81.36067677
38,W VINE ST AND ARMSTRONG BLVD,W VINE ST,ARMSTRONG BLVD,28.30433803,-81.44059047
39,E SR 46 AND JITWAY,E SR 46,JITWAY,28.78687433,-81.22782605
40,E 17TH ST AND BUDINGER AVE,E 17TH ST,BUDINGER AVE,28.24236001,-81.30294001
41,N THACKER AVE AND BOCA PALMS CIR,N THACKER AVE,BOCA PALMS CIR,28.29800333,-81.42436062
42,E SR 436 AND BEAR LAKE RD,E SR 436,BEAR LAKE RD,28.6693574,-81.44459777
43,ALAFAYA TRL AND CARRIGAN AVE,ALAFAYA TRL,CARRIGAN AVE,28.62625061,-81.20772266
44,SR 436 AND FERN PARK BLVD,SR 436,FERN PARK BLVD,28.6557546,-81.33402469
45,E ALTAMONTE DR AND ROBIN RD,E ALTAMONTE DR,ROBIN RD,28.66323913,-81.35258124
46,WELDON BLVD AND N US HWY 17-92,WELDON BLVD,N US HWY 17-92,28.7355725,-81.30562264
47,LAKE EMMA RD AND GREENWOOD BLVD,LAKE EMMA RD,GREENWOOD BLVD,28.75001299,-81.35924446
48,W SR 436 AND LAUREL ST,W SR 436,LAUREL ST,28.66493516,-81.41474087
49,AMIENS RD AND CHESTNUT ST,AMIENS RD,CHESTNUT ST,28.10932033,-81.44273151
50,13TH ST AND BROWN CHAPEL RD,13TH ST,BROWN CHAPEL RD,28.25030157,-81.31160007
51,W SR 434 AND TARRY TOWN TRL,W SR 434,TARRY TOWN TRL,28.69611314,-81.37958958
52,AMIENS RD AND PANTHEON DR,AMIENS RD,PANTHEON DR,28.1137744,-81.44187051
53,SR 436 AND HOWELL BRANCH RD,SR 436,HOWELL BRANCH RD,28.62730683,-81.31647433
54,US HWY 17-92 AND W 13TH ST,US HWY 17-92,W 13TH ST,28.80046585,-81.27300111
55,W SR 434 AND HARBOUR ISLE WAY,W SR 434,HARBOUR ISLE WAY,28.69777645,-81.3643001
56,E SR 436 AND AVERY LN,E SR 436,AVERY LN,28.66935621,-81.44802723
57,WYMORE RD AND SPRING VALLEY RD,WYMORE RD,SPRING VALLEY RD,28.65713024,-81.3902842
58,LAKE EMMA RD AND GREENWOOD BLVD,LAKE EMMA RD,GREENWOOD BLVD,28.75000904,-81.35889865
59,13TH ST AND COMMERCE CENTER DR SOUTH,13TH ST,COMMERCE CENTER DR SOUTH,28.25483947,-81.3189707
60,OLD CANOE CREEK RD AND 5TH ST,OLD CANOE CREEK RD,5TH ST,28.25417366,-81.31485127
61,10TH ST AND FLORIDA AVE,10TH ST,FLORIDA AVE,28.24886975,-81.28086989
62,E 10TH ST AND CRAWFORD AVE,E 10TH ST,CRAWFORD AVE,28.24941107,-81.26048449
63,N JOHN YOUNG PKY AND LYNDELL DR,N JOHN YOUNG PKY,LYNDELL DR,28.31491696,-81.416238
64,DENN JOHN LN AND WINDSOR OAK CT,DENN JOHN LN,WINDSOR OAK CT,28.30800097,-81.38047524
65,E VINE ST AND NEBRASKA AVE,E VINE ST,NEBRASKA AVE,28.30454137,-81.39329777
66,W VINE ST AND N CENTRAL AVE,W VINE ST,N CENTRAL AVE,28.30465649,-81.4071321
67,W VINE ST AND N JOHN YOUNG PKY,W VINE ST,N JOHN YOUNG PKY,28.30464197,-81.41542819
68,W VINE ST AND N EMORY AVE,W VINE ST,N EMORY AVE,28.30462615,-81.41977839
69,W VINE ST AND ORANGE BLVD,W VINE ST,ORANGE BLVD,28.30464127,-81.43074726
70,W VINE ST AND DYER BLVD,W VINE ST,DYER BLVD,28.30462207,-81.43585021
71,W VINE ST AND ARMSTRONG BLVD,W VINE ST,ARMSTRONG BLVD,28.30462597,-81.44086871
72,W VINE ST AND N THACKER AVE,W VINE ST,N THACKER AVE,28.30436849,-81.42517403
73,W VINE ST AND N EMORY AVE,W VINE ST,N EMORY AVE,28.30437413,-81.41939509
74,W VINE ST AND N MAIN ST,W VINE ST,N MAIN ST,28.30435791,-81.40458448
75,E VINE ST AND KEVSTIN DR,E VINE ST,KEVSTIN DR,28.30431492,-81.39403225
76,MICHIGAN AVE AND PARADE AVE,MICHIGAN AVE,PARADE AVE,28.30616367,-81.39118446
77,MICHIGAN AVE AND MILL SLOUGH RD,MICHIGAN AVE,MILL SLOUGH RD,28.31509836,-81.3911774
78,MILL SLOUGH RD AND MILL RUN BLVD,MILL SLOUGH RD,MILL RUN BLVD,28.31536287,-81.38678298
79,MICHIGAN AVE AND OCEAN ST,MICHIGAN AVE,OCEAN ST,28.30953807,-81.39141742
80,MICHIGAN AVE AND MARYGON ST,MICHIGAN AVE,MARYGON ST,28.30654854,-81.39142583
81,MICHIGAN AVE AND MILL SLOUGH RD,MICHIGAN AVE,MILL SLOUGH RD,28.31609388,-81.39116195
82,S THACKER AVE AND W MARTIN ST,S THACKER AVE,W MARTIN ST,28.28276007,-81.42431024
83,N JOHN YOUNG PKY AND LYNDELL DR,N JOHN YOUNG PKY,LYNDELL DR,28.31571819,-81.4157768
84,N JOHN YOUNG PKY AND W DONEGAN AVE,N JOHN YOUNG PKY,W DONEGAN AVE,28.31862086,-81.41582257
85,BILL BECK BLVD AND E OSCEOLA PKY,BILL BECK BLVD,E OSCEOLA PKY,28.3429879,-81.38766421
86,OLD HICKORY TRLEE RD AND U.S. 192,OLD HICKORY TRLEE RD,U.S. 192,28.24635159,-81.25623327
87,MICHIGAN AVE AND MILL CREEK CIR,MICHIGAN AVE,MILL CREEK CIR,28.32117021,-81.39117501
88,FLORIDA PKY AND BUTTONWOOD DR,FLORIDA PKY,BUTTONWOOD DR,28.32902487,-81.36618055
89,MICHIGAN AVE AND SAWDUST TRL,MICHIGAN AVE,SAWDUST TRL,28.33166727,-81.39135406
90,W IRLO BRONSON MEM HWY AND BAMBOO LN,W IRLO BRONSON MEM HWY,BAMBOO LN,28.33251182,-81.47568302
91,W IRLO BRONSON MEM HWY AND LAWTON DR,W IRLO BRONSON MEM HWY,LAWTON DR,28.33311677,-81.4826328
92,W IRLO BRONSON MEM HWY AND N POINCIANA BLVD,W IRLO BRONSON MEM HWY,N POINCIANA BLVD,28.33310655,-81.4905792
93,W IRLO BRONSON MEM HWY AND POLYNESIAN ISLE BLVD,W IRLO BRONSON MEM HWY,POLYNESIAN ISLE BLVD,28.33309641,-81.49478453
94,W IRLO BRONSON MEM HWY AND PKY BLVD,W IRLO BRONSON MEM HWY,PKY BLVD,28.33292544,-81.5353938
95,W IRLO BRONSON MEM HWY AND CELEBRATION PL,W IRLO BRONSON MEM HWY,CELEBRATION PL,28.33260558,-81.53384683
96,W IRLO BRONSON MEM HWY AND INTERNATIONAL DR,W IRLO BRONSON MEM HWY,INTERNATIONAL DR,28.33265908,-81.52299726
97,W IRLO BRONSON MEM HWY AND OLD TOWN BLVD,W IRLO BRONSON MEM HWY,OLD TOWN BLVD,28.33266469,-81.51702427
98,W IRLO BRONSON MEM HWY AND LOCKSLEY LN,W IRLO BRONSON MEM HWY,LOCKSLEY LN,28.33268494,-81.5065279
99,W IRLO BRONSON MEM HWY AND LOCKSLEY LN,W IRLO BRONSON MEM HWY,LOCKSLEY LN,28.33270137,-81.50284784
100,W IRLO BRONSON MEM HWY AND N POINCIANA BLVD,W IRLO BRONSON MEM HWY,N POINCIANA BLVD,28.33275651,-81.48841857
101,W IRLO BRONSON MEM HWY AND LAWTON DR,W IRLO BRONSON MEM HWY,LAWTON DR,28.33275847,-81.48071698
102,MICHIGAN AVE AND CYPRESS ARBOR PL,MICHIGAN AVE,CYPRESS ARBOR PL,28.32242275,-81.39139898
103,N ORANGE BLOSSOM TRL AND COUNTRY BLVD,N ORANGE BLOSSOM TRL,COUNTRY BLVD,28.33420341,-81.4035354
104,N ORANGE BLOSSOM TRL AND E OSCEOLA PKY,N ORANGE BLOSSOM TRL,E OSCEOLA PKY,28.33787241,-81.40356322
105,N ORANGE BLOSSOM TRL AND OSCEOLA PKY,N ORANGE BLOSSOM TRL,OSCEOLA PKY,28.3421158,-81.40355039
106,W IRLO BRONSON MEM HWY AND MORGAN WILLIAMS RD,W IRLO BRONSON MEM HWY,MORGAN WILLIAMS RD,28.33416115,-81.58948052
107,W IRLO BRONSON MEM HWY AND BLACK LAKE RD,W IRLO BRONSON MEM HWY,BLACK LAKE RD,28.34586925,-81.60437792
108,PLEASANT HILL RD AND INTERIOR ST,PLEASANT HILL RD,INTERIOR ST,28.24237926,-81.4358897
109,PLEASANT HILL RD AND FERN DR,PLEASANT HILL RD,FERN DR,28.25799947,-81.43615395
110,PLEASANT HILL RD AND NORTHGATE DR,PLEASANT HILL RD,NORTHGATE DR,28.26355079,-81.4360373
111,PLEASANT HILL RD AND SUN COVE DR,PLEASANT HILL RD,SUN COVE DR,28.15821547,-81.43982216
112,PLEASANT HILL RD AND SUN COVE DR,PLEASANT HILL RD,SUN COVE DR,28.15881093,-81.44023185
113,PLEASANT HILL RD AND INTERIOR ST,PLEASANT HILL RD,INTERIOR ST,28.16323501,-81.43988892
114,PLEASANT HILL RD AND WILDERNESS TRL,PLEASANT HILL RD,WILDERNESS TRL,28.16612964,-81.43990398
115,PLEASANT HILL RD AND HAWKIN DR,PLEASANT HILL RD,HAWKIN DR,28.16951475,-81.43992318
116,N DOVERPLUM AVE AND KOA ST,N DOVERPLUM AVE,KOA ST,28.15631849,-81.4522066
117,CYPRESS PKY AND INTERIOR ST,CYPRESS PKY,INTERIOR ST,28.14680938,-81.44907171
118,PLEASANT HILL RD AND STEWART BLVD,PLEASANT HILL RD,STEWART BLVD,28.21108552,-81.43994501
119,CELEBRATION PL AND W IRLO BRONSON MEM HWY,CELEBRATION PL,W IRLO BRONSON MEM HWY,28.33188126,-81.53467854
120,CELEBRATION PL AND CELEBRATION PL,CELEBRATION PL,CELEBRATION PL,28.33042145,-81.53203666
121,CELEBRATION PL AND CELEBRATION PL,CELEBRATION PL,CELEBRATION PL,28.33024009,-81.5334108
122,CELEBRATION AVE AND RILEY RD,CELEBRATION AVE,RILEY RD,28.3313824,-81.52868865
123,MONTEREY RD AND YORK CT,MONTEREY RD,YORK CT,28.16628005,-81.49339125
124,E SR 436 AND BALMY BEACH DR,E SR 436,BALMY BEACH DR,28.67115219,-81.45470481
125,E SR 436 AND CAMPUS LOOP,E SR 436,CAMPUS LOOP,28.66895,-81.43597728
126,E SR 436 AND S HUNT CLUB BLVD,E SR 436,S HUNT CLUB BLVD,28.67023843,-81.45249228
127,RED BUG LAKE RD AND OVIEDO MALL BLVD,RED BUG LAKE RD,OVIEDO MALL BLVD,28.65660436,-81.23629014
128,RED BUG LAKE RD AND OVIEDO MARKETPL BLVD,RED BUG LAKE RD,OVIEDO MARKETPL BLVD,28.65625231,-81.23595193
129,ALAFAYA TRL AND W MCCULLOCH RD,ALAFAYA TRL,W MCCULLOCH RD,28.61308588,-81.20778838
130,LAKE EMMA RD AND FLAGG LN,LAKE EMMA RD,FLAGG LN,28.75351706,-81.35883412
131,E ALTAMONTE DR AND PARK PL,E ALTAMONTE DR,PARK PL,28.66384847,-81.36696143
132,E ALTAMONTE DR AND BOSTON AVE,E ALTAMONTE DR,BOSTON AVE,28.66398491,-81.36969838
133,E ALTAMONTE DR AND ESSEX AVE,E ALTAMONTE DR,ESSEX AVE,28.66487201,-81.3778217
134,E ALTAMONTE DR AND OYSTER BAY CIR,E ALTAMONTE DR,OYSTER BAY CIR,28.66172905,-81.38561252
135,E ALTAMONTE DR AND CRANES ROOST BLVD,E ALTAMONTE DR,CRANES ROOST BLVD,28.66227106,-81.38330484
136,WEST TOWN PKY AND BUNNELL RD,WEST TOWN PKY,BUNNELL RD,28.65816178,-81.42234212
137,S SR 434 AND HILLVIEW DR,S SR 434,HILLVIEW DR,28.64670505,-81.41544714
138,S SR 434 AND GATEWAY DR,S SR 434,GATEWAY DR,28.64544173,-81.41502712
139,W AIRPORT BLVD AND N US HWY 17-92,W AIRPORT BLVD,N US HWY 17-92,28.77352693,-81.28505576
140,W LAKE MARY BLVD AND SIR LAWRENCE DR,W LAKE MARY BLVD,SIR LAWRENCE DR,28.75658772,-81.3113464
141,W LAKE MARY BLVD AND STERLING PINE ST,W LAKE MARY BLVD,STERLING PINE ST,28.7565555,-81.30346979
142,N US HWY 17-92 AND FLORIDA AVE,N US HWY 17-92,FLORIDA AVE,28.70606802,-81.32682342
143,N US HWY 17-92 AND NURSERY RD,N US HWY 17-92,NURSERY RD,28.70364165,-81.32703364
144,N US HWY 17-92 AND E CHURCH AVE,N US HWY 17-92,E CHURCH AVE,28.70041774,-81.3272328
145,S US HWY 17-92 AND IRENE DALE DR,S US HWY 17-92,IRENE DALE DR,28.69295586,-81.32735242
146,OVIEDO MALL BLVD AND OVIEDO MALL BLVD,OVIEDO MALL BLVD,OVIEDO MALL BLVD,28.66220083,-81.23539441
147,N SR 434 AND ORANGE AVE,N SR 434,ORANGE AVE,28.66247126,-81.4188478
148,S US HWY 17-92 AND LAURA ST,S US HWY 17-92,LAURA ST,28.68855425,-81.32910983
149,S US HWY 17-92 AND E WILDMERE AVE,S US HWY 17-92,E WILDMERE AVE,28.69201165,-81.32795933
150,S US HWY 17-92 AND TRIPLET LAKE DR,S US HWY 17-92,TRIPLET LAKE DR,28.67112863,-81.3381502
151,S US HWY 17-92 AND CONCORD DR,S US HWY 17-92,CONCORD DR,28.67377096,-81.3372878
152,S US HWY 17-92 AND GOLDEN DAYS DR,S US HWY 17-92,GOLDEN DAYS DR,28.68148295,-81.33487024
153,TOWN CENTER CIR AND SOUTH ENTRANCE,TOWN CENTER CIR,SOUTH ENTRANCE,28.80311435,-81.33974341
154,SR 436 AND HIBISCUS RD,SR 436,HIBISCUS RD,28.65213209,-81.32889582
155,E ALTAMONTE DR AND ANCHOR RD,E ALTAMONTE DR,ANCHOR RD,28.66242168,-81.34441738
156,WELDON BLVD AND N US HWY 17-92,WELDON BLVD,N US HWY 17-92,28.73643138,-81.30539605
157,SUMMERLIN AVE AND WYNNEWOOD DR,SUMMERLIN AVE,WYNNEWOOD DR,28.78801363,-81.25216437
158,W LAKE MARY BLVD AND LONGWOOD LAKE MARY RD,W LAKE MARY BLVD,LONGWOOD LAKE MARY RD,28.75636465,-81.33307903
159,W LAKE MARY BLVD AND N SUN DR,W LAKE MARY BLVD,N SUN DR,28.75630593,-81.35200702
160,LAKE EMMA RD AND SUN LAKE CIR,LAKE EMMA RD,SUN LAKE CIR,28.74269377,-81.35860588
161,W SR 436 AND SAN SEBASTIAN PRADO,W SR 436,SAN SEBASTIAN PRADO,28.66395889,-81.41198151
162,JAMESTOWN BLVD AND SANLANDO DR,JAMESTOWN BLVD,SANLANDO DR,28.68271833,-81.41732976
163,JAMESTOWN BLVD AND N SR 434,JAMESTOWN BLVD,N SR 434,28.68285847,-81.41765425
164,E 1ST ST AND CYPRESS AVE,E 1ST ST,CYPRESS AVE,28.81167542,-81.2640725
165,FOREST CITY RD AND VILLA DR,FOREST CITY RD,VILLA DR,28.61447028,-81.4147261
166,US HWY 17-92 AND W 3RD ST,US HWY 17-92,W 3RD ST,28.8100379,-81.2732735
167,E SEMORAN BLVD AND SAND AVE,E SEMORAN BLVD,SAND AVE,28.67282282,-81.48790532
168,N ORANGE BLOSSOM TRL AND CINDERLN PKY,N ORANGE BLOSSOM TRL,CINDERLN PKY,28.6108953,-81.42887255
169,S CENTRLAL AVE AND E CLEVELAND STRET,S CENTRLAL AVE,E CLEVELAND STRET,28.65515788,-81.51135388
170,S CENTRLAL AVE AND E 18TH ST,S CENTRLAL AVE,E 18TH ST,28.65727481,-81.51138613
171,S CENTRLAL AVE AND E 15TH ST,S CENTRLAL AVE,E 15TH ST,28.66056213,-81.5113722
172,E SEMORAN BLVD AND S LAKE PLEASANT RD,E SEMORAN BLVD,S LAKE PLEASANT RD,28.67319388,-81.47719577
173,E SEMORAN BLVD AND OCEAN AVE,E SEMORAN BLVD,OCEAN AVE,28.67320469,-81.48573379
174,CLARCONA OCOEE RD AND N ORANGE BLOSSOM TRL,CLARCONA OCOEE RD,N ORANGE BLOSSOM TRL,28.61338193,-81.43032741
175,CLARCONA OCOEE RD AND N ORANGE BLOSSOM TRL,CLARCONA OCOEE RD,N ORANGE BLOSSOM TRL,28.61300923,-81.4308629
176,W COLONIAL DR AND EMERALDA RD,W COLONIAL DR,EMERALDA RD,28.55222672,-81.45441981
177,W COLONIAL DR AND DEAUVILLE DR,W COLONIAL DR,DEAUVILLE DR,28.55265591,-81.45126079
178,MAGNOLIA HOMES RD AND EDGEWATER DR,MAGNOLIA HOMES RD,EDGEWATER DR,28.61717318,-81.42735205
179,LEE RD AND KINGSWOOD DR,LEE RD,KINGSWOOD DR,28.60569539,-81.39873189
180,N HIAWASSEE RD AND STARDUST LN,N HIAWASSEE RD,STARDUST LN,28.5840424,-81.47595651
181,N HIAWASSEE RD AND STARDUST LN,N HIAWASSEE RD,STARDUST LN,28.58822297,-81.47596466
182,SILVER STAR RD AND N HASTINGS ST,SILVER STAR RD,N HASTINGS ST,28.57783566,-81.46032091
183,SILVER STAR RD AND N HIAWASSEE RD,SILVER STAR RD,N HIAWASSEE RD,28.57746809,-81.4752298
184,SILVER STAR RD AND HEALY DR,SILVER STAR RD,HEALY DR,28.57754573,-81.46951103
185,SILVER STAR RD AND GOLF CLUB PKY,SILVER STAR RD,GOLF CLUB PKY,28.57783343,-81.45638665
186,N HIAWASSEE RD AND ALMENA ST,N HIAWASSEE RD,ALMENA ST,28.57644484,-81.47617561
187,N HIAWASSEE RD AND ALMENA ST,N HIAWASSEE RD,ALMENA ST,28.57525327,-81.476125
188,N HIAWASSEE RD AND AMBASSADOR DR,N HIAWASSEE RD,AMBASSADOR DR,28.56978448,-81.47608532
189,N HIAWASSEE RD AND BALBOA DR,N HIAWASSEE RD,BALBOA DR,28.55874727,-81.47600318
190,N HIAWASSEE RD AND RIVER OAKS DR,N HIAWASSEE RD,RIVER OAKS DR,28.55424074,-81.47604336
191,NORTH LN AND WENDY DR,NORTH LN,WENDY DR,28.59624393,-81.46249257
192,N PINE HILLS RD AND FIGWOOD LN,N PINE HILLS RD,FIGWOOD LN,28.57638139,-81.45161088
193,N PINE HILLS RAOD AND DEAUVILLE DR,N PINE HILLS RAOD,DEAUVILLE DR,28.55584128,-81.44789909
194,INTERNATIONAL DR AND SAMOAN CT,INTERNATIONAL DR,SAMOAN CT,28.43405509,-81.47182727
195,INTERNATIONAL DR AND AUSTRIAN ROW,INTERNATIONAL DR,AUSTRIAN ROW,28.43774064,-81.47180112
196,INTERNATIONAL DR AND AUSTRIAN ROW,INTERNATIONAL DR,AUSTRIAN ROW,28.44054999,-81.47047889
197,INTERNATIONAL DR AND JAMAICAN CT,INTERNATIONAL DR,JAMAICAN CT,28.44498108,-81.47062556
198,INTERNATIONAL DR AND W SAND LAKE RD,INTERNATIONAL DR,W SAND LAKE RD,28.451593,-81.47071787
199,INTERNATIONAL DR AND CARRIER DR,INTERNATIONAL DR,CARRIER DR,28.45324548,-81.47072612
200,INTERNATIONAL DR AND CARRIER DR,INTERNATIONAL DR,CARRIER DR,28.45509501,-81.47072691
201,S HIAWASSEE RD AND GRAND JUNCTION BLVD,S HIAWASSEE RD,GRAND JUNCTION BLVD,28.54076005,-81.47566908
202,N HIAWASSEE RD AND BENTLEY PL WAY,N HIAWASSEE RD,BENTLEY PL WAY,28.55032624,-81.47596298
203,N HIAWASSEE RD AND GRAND JUNCTION BLVD,N HIAWASSEE RD,GRAND JUNCTION BLVD,28.54224227,-81.47593236
204,S HIAWASSEE RD AND OLD WINTER GARDEN RD,S HIAWASSEE RD,OLD WINTER GARDEN RD,28.53853189,-81.47593465
205,S HIAWASSEE RD AND HARBOR HEIGHTS DR,S HIAWASSEE RD,HARBOR HEIGHTS DR,28.53686067,-81.47593619
206,LANDSTAR BLVD AND PINNACLE COVE BLVD,LANDSTAR BLVD,PINNACLE COVE BLVD,28.37200948,-81.36699738
207,LANDSTAR BLVD AND KENTUCKY WOODS LN E,LANDSTAR BLVD,KENTUCKY WOODS LN E,28.37774648,-81.36458399
208,FAIRWAY WOODS BLVD AND S ORANGE AVE,FAIRWAY WOODS BLVD,S ORANGE AVE,28.3871898,-81.37436868
209,S ORANGE AVE AND TRADEPORT DR,S ORANGE AVE,TRADEPORT DR,28.42204512,-81.37116455
210,MANDARIN DR AND VANGUARD ST,MANDARIN DR,VANGUARD ST,28.46069327,-81.44632017
211,MANDARIN DR AND SKEENA ST,MANDARIN DR,SKEENA ST,28.45727407,-81.44627686
212,MANDARIN DR AND W SAND LAKE RD,MANDARIN DR,W SAND LAKE RD,28.45077167,-81.44627655
213,N HIAWASSEE RD AND BLANCHE CT,N HIAWASSEE RD,BLANCHE CT,28.56032816,-81.47579772
214,N IVEY LN AND W ROBINSON ST,N IVEY LN,W ROBINSON ST,28.54515012,-81.43467742
215,AMERICANA BLVD AND S TEXAS AVE,AMERICANA BLVD,S TEXAS AVE,28.48684072,-81.4087772
216,WESTWOOD BLVD AND WEST ENTRANCE DR,WESTWOOD BLVD,WEST ENTRANCE DR,28.41856441,-81.46609101
217,INTERNATIONAL DR AND HAWAIIAN CT,INTERNATIONAL DR,HAWAIIAN CT,28.4258801,-81.46384097
218,INTERNATIONAL DR AND CONVENTION WAY,INTERNATIONAL DR,CONVENTION WAY,28.42598998,-81.46741166
219,W OAK RIDGE RD AND BONNIE BROOK BLVD,W OAK RIDGE RD,BONNIE BROOK BLVD,28.47214886,-81.42588545
220,S RIO GRANDE AVE AND DOSS AVE,S RIO GRANDE AVE,DOSS AVE,28.4690591,-81.40092021
221,LAKE ELLENOR DR AND W LANCASTER RD,LAKE ELLENOR DR,W LANCASTER RD,28.46549375,-81.40090768
222,LAKE ELLENOR DR AND ORLANDO CENTRAL PKY,LAKE ELLENOR DR,ORLANDO CENTRAL PKY,28.46360985,-81.40144639
223,W SAND LAKE RD AND GOLDEN SKY LN,W SAND LAKE RD,GOLDEN SKY LN,28.45051755,-81.39468726
224,W SAND LAKE RD AND GOLDEN SKY LN,W SAND LAKE RD,GOLDEN SKY LN,28.45082406,-81.39343961
225,PREMIER ROW AND DIVIDEND DR,PREMIER ROW,DIVIDEND DR,28.46056243,-81.40534027
226,LAKE ELLENOR DR AND W LANCASTER RD,LAKE ELLENOR DR,W LANCASTER RD,28.46561845,-81.40064371
227,S RIO GRANDE AVE AND DOSS AVE,S RIO GRANDE AVE,DOSS AVE,28.4691983,-81.40066784
228,W OAK RIDGE RD AND OAK HILL MANOR DR,W OAK RIDGE RD,OAK HILL MANOR DR,28.47249438,-81.41560606
229,W OAK RIDGE RD AND CASA DEL REY CIR,W OAK RIDGE RD,CASA DEL REY CIR,28.47240016,-81.42482397
230,INTERNATIONAL DR AND W SAND LAKE RD,INTERNATIONAL DR,W SAND LAKE RD,28.4520691,-81.47091473
231,INTERNATIONAL DR AND JAMAICAN CT,INTERNATIONAL DR,JAMAICAN CT,28.44673696,-81.47116755
232,INTERNATIONAL DR AND RILEY PARK WAY,INTERNATIONAL DR,RILEY PARK WAY,28.44359376,-81.4706629
233,INTERNATIONAL DR AND AUSTRIAN CT,INTERNATIONAL DR,AUSTRIAN CT,28.43961018,-81.47129932
234,INTERNATIONAL DR AND SAMOAN CT,INTERNATIONAL DR,SAMOAN CT,28.43405419,-81.47226565
235,INTERNATIONAL DR AND POINTE PLZ AVE,INTERNATIONAL DR,POINTE PLZ AVE,28.43051162,-81.47066164
236,INTERNATIONAL DR AND HAWAIIAN CT,INTERNATIONAL DR,HAWAIIAN CT,28.42546283,-81.46340671
237,WESTWOOD BLVD AND INTERNATIONAL DR,WESTWOOD BLVD,INTERNATIONAL DR,28.41907802,-81.4630722
238,CENTRLAL FLORIDA PKY AND DISCOVERY COVE WAY,CENTRLAL FLORIDA PKY,DISCOVERY COVE WAY,28.40619917,-81.45923227
239,CENTRLAL FLORIDA PKY AND DISCOVERY COVE WAY,CENTRLAL FLORIDA PKY,DISCOVERY COVE WAY,28.40647839,-81.45944325
240,CENTRLAL FLORIDA PKY AND SEA HARBOR DR,CENTRLAL FLORIDA PKY,SEA HARBOR DR,28.40847618,-81.46957343
241,N HIAWASSEE RD AND ANOKA DR,N HIAWASSEE RD,ANOKA DR,28.57241969,-81.47589434
242,N HIAWASSEE RD AND ALMENA ST,N HIAWASSEE RD,ALMENA ST,28.57542366,-81.47591436
243,SILVER STAR RD AND N HIAWASSEE RD,SILVER STAR RD,N HIAWASSEE RD,28.5776803,-81.47791216
244,WINEGARD RD AND W LANCASTER RD,WINEGARD RD,W LANCASTER RD,28.46672803,-81.384371
245,S ORANGE BLOSSOM TRL AND DOSS AVE,S ORANGE BLOSSOM TRL,DOSS AVE,28.46964977,-81.39649095
246,WINEGARD RD AND W LANCASTER RD,WINEGARD RD,W LANCASTER RD,28.46639218,-81.38420843
247,S ORANGE BLOSSOM TRL AND TENPOINT LN,S ORANGE BLOSSOM TRL,TENPOINT LN,28.37580712,-81.40430099
248,S ORANGE BLOSSOM TRL AND DEERFIELD BLVD,S ORANGE BLOSSOM TRL,DEERFIELD BLVD,28.37912723,-81.40431176
249,S ORANGE BLOSSOM TRL AND W WETHERBEE RD,S ORANGE BLOSSOM TRL,W WETHERBEE RD,28.38769219,-81.4043502
250,S ORANGE BLOSSOM TRL AND LA QUINTA DR,S ORANGE BLOSSOM TRL,LA QUINTA DR,28.43973204,-81.40367433
251,S ORANGE BLOSSOM TRL AND W SAND LAKE RD,S ORANGE BLOSSOM TRL,W SAND LAKE RD,28.45268991,-81.39999711
252,S ORANGE BLOSSOM TRL AND HOLDEN AVE,S ORANGE BLOSSOM TRL,HOLDEN AVE,28.49178496,-81.3966669
253,S ORANGE BLOSSOM TRL AND 45TH ST,S ORANGE BLOSSOM TRL,45TH ST,28.49749766,-81.39667351
254,S ORANGE BLOSSOM TRL AND 43RD ST,S ORANGE BLOSSOM TRL,43RD ST,28.50030299,-81.39675952
255,S ORANGE BLOSSOM TRL AND 35TH ST,S ORANGE BLOSSOM TRL,35TH ST,28.50684782,-81.39678222
256,S ORANGE BLOSSOM TRL AND 39TH ST,S ORANGE BLOSSOM TRL,39TH ST,28.5038234,-81.39702249
257,S ORANGE BLOSSOM TRL AND 42ND ST,S ORANGE BLOSSOM TRL,42ND ST,28.50125352,-81.39702389
258,S ORANGE BLOSSOM TRL AND 45TH ST,S ORANGE BLOSSOM TRL,45TH ST,28.4967815,-81.39705864
259,S ORANGE BLOSSOM TRL AND HOLDEN AVE,S ORANGE BLOSSOM TRL,HOLDEN AVE,28.49388057,-81.39697473
260,S ORANGE BLOSSOM TRL AND REDMAN ST,S ORANGE BLOSSOM TRL,REDMAN ST,28.48796692,-81.39691671
261,S ORANGE BLOSSOM TRL AND AMERICANA BLVD,S ORANGE BLOSSOM TRL,AMERICANA BLVD,28.48336722,-81.3968746
262,S ORANGE BLOSSOM TRL AND WAKULLA WAY,S ORANGE BLOSSOM TRL,WAKULLA WAY,28.47530309,-81.39680502
263,S ORANGE BLOSSOM TRL AND W LANCASTER RD,S ORANGE BLOSSOM TRL,W LANCASTER RD,28.46661924,-81.39693756
264,S ORANGE BLOSSOM TRL AND PREMIER ROW,S ORANGE BLOSSOM TRL,PREMIER ROW,28.46133773,-81.39789297
265,S ORANGE BLOSSOM TRL AND COUNSELOR ROW,S ORANGE BLOSSOM TRL,COUNSELOR ROW,28.45699613,-81.39908736
266,S ORANGE BLOSSOM TRL AND ZIEGLER RD,S ORANGE BLOSSOM TRL,ZIEGLER RD,28.45442005,-81.39981517
267,S ORANGE BLOSSOM TRL AND MORNING DR,S ORANGE BLOSSOM TRL,MORNING DR,28.4437305,-81.40281619
268,S ORANGE BLOSSOM TRL AND LA QUINTA DR,S ORANGE BLOSSOM TRL,LA QUINTA DR,28.43898432,-81.4041299
269,S ORANGE BLOSSOM TRL AND W LANDST RD,S ORANGE BLOSSOM TRL,W LANDST RD,28.43665937,-81.40459112
270,S ORANGE BLOSSOM TRL AND PRINCIPAL ROW,S ORANGE BLOSSOM TRL,PRINCIPAL ROW,28.42633015,-81.40487793
271,S ORANGE BLOSSOM TRL AND CECIL DR,S ORANGE BLOSSOM TRL,CECIL DR,28.42501956,-81.40487312
272,S ORANGE BLOSSOM TRL AND TAFT VINELAND RD,S ORANGE BLOSSOM TRL,TAFT VINELAND RD,28.41859885,-81.40484205
273,SAN ANTONIO AVE AND HONOUR RD,SAN ANTONIO AVE,HONOUR RD,28.49045204,-81.40514832
274,N PINE HILLS RD AND NORTH LN,N PINE HILLS RD,NORTH LN,28.59616873,-81.45129338
275,N KIRKMAN RD AND W WASHINGTON ST,N KIRKMAN RD,W WASHINGTON ST,28.54268334,-81.45802769
276,S RIO GRANDE AVE AND AMERICANA BLVD,S RIO GRANDE AVE,AMERICANA BLVD,28.48367957,-81.40299467
277,SEA HARBOR DR AND SEA WORLD DR,SEA HARBOR DR,SEA WORLD DR,28.41141181,-81.4670215
278,STATE RD 535 AND VISTANA DR,STATE RD 535,VISTANA DR,28.36374852,-81.50158489
279,WESTWOOD BLVD AND GRAND HORIZONS BLVD,WESTWOOD BLVD,GRAND HORIZONS BLVD,28.40234833,-81.47479038
280,WESTWOOD BLVD AND INTERNATIONAL DR,WESTWOOD BLVD,INTERNATIONAL DR,28.39272111,-81.46821996
281,N HIAWASSEE RD AND BENTLEY PL WAY,N HIAWASSEE RD,BENTLEY PL WAY,28.55064769,-81.47568901
282,S RIO GRANDE AVE AND LAKE HERITAGE CIR,S RIO GRANDE AVE,LAKE HERITAGE CIR,28.48208378,-81.4024191
283,S RIO GRANDE AVE AND AMERICANA BLVD,S RIO GRANDE AVE,AMERICANA BLVD,28.48326971,-81.4027126
284,S APOPKA VINELAND RD AND VININGS WAY BLVD,S APOPKA VINELAND RD,VININGS WAY BLVD,28.38788252,-81.50620417
285,PALM PKY AND S APOPKA VINELAND RD,PALM PKY,S APOPKA VINELAND RD,28.38583411,-81.50438221
286,INTERNATIONAL DR AND CROSSLAND DR,INTERNATIONAL DR,CROSSLAND DR,28.38769465,-81.47720352
287,INTERNATIONAL DR AND VINELAND AVE,INTERNATIONAL DR,VINELAND AVE,28.38521625,-81.48568525
288,INTERNATIONAL DR AND VISTANA RESORT TER,INTERNATIONAL DR,VISTANA RESORT TER,28.38740258,-81.47717044
289,SOUTH PARK CIR AND S JOHN YOUNG PKY,SOUTH PARK CIR,S JOHN YOUNG PKY,28.4393938,-81.42479314
290,SOUTH PARK CIR AND S JOHN YOUNG PKY,SOUTH PARK CIR,S JOHN YOUNG PKY,28.44098416,-81.42278303
291,SOUTH PARK CIR AND S JOHN YOUNG PKY,SOUTH PARK CIR,S JOHN YOUNG PKY,28.44750373,-81.42334714
292,SEA HARBOR DR AND SEA WORLD DR,SEA HARBOR DR,SEA WORLD DR,28.41130953,-81.46740364
293,S JOHN YOUNG PKY AND 39TH ST,S JOHN YOUNG PKY,39TH ST,28.50294185,-81.41768628
294,S JOHN YOUNG PKY AND 40TH ST,S JOHN YOUNG PKY,40TH ST,28.50062919,-81.41764972
295,S JOHN YOUNG PKY AND DIRECTORS ROW,S JOHN YOUNG PKY,DIRECTORS ROW,28.46072008,-81.42276236
296,S JOHN YOUNG PKY AND VILLAGE CENTER DR,S JOHN YOUNG PKY,VILLAGE CENTER DR,28.36349449,-81.42327869
297,E MAIN ST AND ALABAMA AVE,E MAIN ST,ALABAMA AVE,28.67320677,-81.50209709
298,E MAIN ST AND S HIGHLAND AVE,E MAIN ST,S HIGHLAND AVE,28.67321255,-81.5063078
299,S PARK AVE AND E 8TH ST,S PARK AVE,E 8TH ST,28.66804887,-81.50939274
300,N PARK AVE AND E OAK ST,N PARK AVE,E OAK ST,28.68105653,-81.50933122
301,W KENNEDY BLVD AND BETHUNE DR,W KENNEDY BLVD,BETHUNE DR,28.61837616,-81.39170067
302,E KENNEDY BLVD AND N EAST ST,E KENNEDY BLVD,N EAST ST,28.61859539,-81.37594011
303,W KENNEDY BLVD AND S LAKE DESTINY RD,W KENNEDY BLVD,S LAKE DESTINY RD,28.61843412,-81.38771089
304,W WEBSTER AVE AND N DENNING DR,W WEBSTER AVE,N DENNING DR,28.60406904,-81.36166052
305,N LAKEMONT AVE AND ALOMA AVE,N LAKEMONT AVE,ALOMA AVE,28.60006211,-81.32808616
306,S LAKEMONT AVE AND LAKEMONT CIR,S LAKEMONT AVE,LAKEMONT CIR,28.58273517,-81.32767762
307,LEE RD AND LOREN AVE,LEE RD,LOREN AVE,28.6058398,-81.36775082
308,E FAIRBANKS AVE AND S INTERLACHEN AVE,E FAIRBANKS AVE,S INTERLACHEN AVE,28.5940523,-81.34794586
309,W COLONIAL DR AND KENSINGTON DR,W COLONIAL DR,KENSINGTON DR,28.55294517,-81.41879851
310,ALOMA AVE AND OAK RESERVE LN,ALOMA AVE,OAK RESERVE LN,28.60697422,-81.29492251
311,N GOLDENROD RD AND GEORGEANN ST,N GOLDENROD RD,GEORGEANN ST,28.59936447,-81.2867612
312,N ORANGE BLOSSOM TRL AND COZY COVE CIR,N ORANGE BLOSSOM TRL,COZY COVE CIR,28.58484192,-81.41003471
313,W COLONIAL DR AND SILVERTON ST,W COLONIAL DR,SILVERTON ST,28.55238034,-81.43876369
314,W COLONIAL DR AND FERGUSON DR,W COLONIAL DR,FERGUSON DR,28.55291726,-81.42180443
315,W COLONIAL DR AND DR BUICK AVE,W COLONIAL DR,DR BUICK AVE,28.55286087,-81.42790404
316,W COLONIAL DR AND KERRY DR,W COLONIAL DR,KERRY DR,28.55280505,-81.43579208
317,W COLONIAL DR AND MONTGOMERY ST,W COLONIAL DR,MONTGOMERY ST,28.55278458,-81.43941136
318,MERCY DR AND W D JUDGE DR,MERCY DR,W D JUDGE DR,28.56044881,-81.43046962
319,MERCY DR AND COLONY WAY,MERCY DR,COLONY WAY,28.56187266,-81.43045758
320,MERCY DR AND W PRINCETON ST,MERCY DR,W PRINCETON ST,28.56984085,-81.43076212
321,MERCY DR AND W HEW HAMPSHIRE ST,MERCY DR,W HEW HAMPSHIRE ST,28.56619883,-81.43062184
322,MERCY DR AND BRINELL AVE,MERCY DR,BRINELL AVE,28.55850211,-81.43055414
323,ROSEWOOD WAY AND CINDERLN PKY,ROSEWOOD WAY,CINDERLN PKY,28.6084222,-81.42829107
324,UNIVERSITY BLVD AND DRIGGS DR,UNIVERSITY BLVD,DRIGGS DR,28.59736934,-81.30402392
325,UNIVERSITY BLVD AND GATHERING DR,UNIVERSITY BLVD,GATHERING DR,28.5973743,-81.24074895
326,UNIVERSITY BLVD AND SUNTREE BLVD,UNIVERSITY BLVD,SUNTREE BLVD,28.59762044,-81.24296752
327,UNIVERSITY BLVD AND HALL RD,UNIVERSITY BLVD,HALL RD,28.59892546,-81.26706413
328,UNIVERSITY BLVD AND N GOLDENROD RD,UNIVERSITY BLVD,N GOLDENROD RD,28.5975374,-81.28560658
329,N SEMORAN BLVD AND SANTA ROSA DR,N SEMORAN BLVD,SANTA ROSA DR,28.55534193,-81.3109508
330,E COLONIAL DR AND SANTA ROSA DR,E COLONIAL DR,SANTA ROSA DR,28.5548458,-81.31521945
331,GEMINI BLVD W AND CENTAURUS DR W,GEMINI BLVD W,CENTAURUS DR W,28.60066107,-81.2053434
332,N ALAFAYA TRL AND ORPINGTON ST,N ALAFAYA TRL,ORPINGTON ST,28.56858915,-81.20792218
333,E COLONIAL DR AND CONSTANTINE ST,E COLONIAL DR,CONSTANTINE ST,28.56853473,-81.26097884
334,E COLONIAL DR AND N SEMORAN BLVD,E COLONIAL DR,N SEMORAN BLVD,28.55846469,-81.30935329
335,E COLONIAL DR AND N SEMORAN BLVD,E COLONIAL DR,N SEMORAN BLVD,28.55682164,-81.31191924
336,E COLONIAL DR AND BARTON DR,E COLONIAL DR,BARTON DR,28.55584753,-81.31388163
337,E COLONIAL DR AND SANTA ROSA DR,E COLONIAL DR,SANTA ROSA DR,28.55458302,-81.31742085
338,N SEMORAN BLVD AND OLD CHENEY HWY,N SEMORAN BLVD,OLD CHENEY HWY,28.56277148,-81.31072174
339,CURRY FORD RD AND COLTON DR,CURRY FORD RD,COLTON DR,28.51706522,-81.29314794
340,N CHICKASAW TRL AND WINTER SONG DR,N CHICKASAW TRL,WINTER SONG DR,28.54941768,-81.27748306
341,N CHICKASAW TRL AND FENWICK DR,N CHICKASAW TRL,FENWICK DR,28.55161501,-81.27757014
342,VALENCIA COLLEGE LN AND MENDHAM BLVD,VALENCIA COLLEGE LN,MENDHAM BLVD,28.5536701,-81.27332205
343,S GOLDENROD RD AND TOLEDO ST,S GOLDENROD RD,TOLEDO ST,28.52328299,-81.28572077
344,CURRY FORD RD AND CAMELLIA GARDEN DR,CURRY FORD RD,CAMELLIA GARDEN DR,28.51842276,-81.29621233
345,PERSHING AVE AND PERSHING PARK DR,PERSHING AVE,PERSHING PARK DR,28.49891597,-81.29441656
346,UNIVERSITY BLVD AND ROUSE RD,UNIVERSITY BLVD,ROUSE RD,28.59746014,-81.22315115
347,UNIVERSITY BLVD AND ARDEN VILLAS BLVD,UNIVERSITY BLVD,ARDEN VILLAS BLVD,28.59750765,-81.219757
348,UNIVERSITY BLVD AND SYSTEMS WAY,UNIVERSITY BLVD,SYSTEMS WAY,28.59784348,-81.2122384
349,S GOLDENROD RD AND BEATTY DR,S GOLDENROD RD,BEATTY DR,28.4842415,-81.28550306
350,S CLARKE RD AND W COLONIAL DR,S CLARKE RD,W COLONIAL DR,28.55466342,-81.51843819
351,S CLARKE RD AND W COLONIAL DR,S CLARKE RD,W COLONIAL DR,28.55731453,-81.5163398
352,N CLARKE RD AND E SILVER STAR RD,N CLARKE RD,E SILVER STAR RD,28.57318189,-81.5175001
353,W FAIRBANKS AVE AND OVERSPIN DR,W FAIRBANKS AVE,OVERSPIN DR,28.59289909,-81.38370554
354,W FAIRBANKS AVE AND CAMBRIDGE BLVD,W FAIRBANKS AVE,CAMBRIDGE BLVD,28.59297758,-81.3799963
355,E ROBINSON ST AND N SUMMERLIN AVE,E ROBINSON ST,N SUMMERLIN AVE,28.54581586,-81.36825187
356,S SEMORAN BLVD AND DOGWOOD DR,S SEMORAN BLVD,DOGWOOD DR,28.54165727,-81.31073507
357,S SEMORAN BLVD AND LA COSTA DR,S SEMORAN BLVD,LA COSTA DR,28.52807306,-81.31057925
358,S SEMORAN BLVD AND AMURCON PL,S SEMORAN BLVD,AMURCON PL,28.49211256,-81.31041088
359,S SEMORAN BLVD AND ST CHARLES PRADO,S SEMORAN BLVD,ST CHARLES PRADO,28.48973499,-81.31038828
360,PERSHING AVE AND THORNBRIAR LN,PERSHING AVE,THORNBRIAR LN,28.49880651,-81.31256782
361,S SEMORAN BLVD AND LIDO ST,S SEMORAN BLVD,LIDO ST,28.53006437,-81.31032126
362,S SEMORAN BLVD AND ANDORA ST,S SEMORAN BLVD,ANDORA ST,28.53485403,-81.31037666
363,S SEMORAN BLVD AND KALMIA DR,S SEMORAN BLVD,KALMIA DR,28.54384302,-81.31049534
364,E COLONIAL DR AND N SUMMERLIN AVE,E COLONIAL DR,N SUMMERLIN AVE,28.55309669,-81.36821418
365,E COLONIAL DR AND OLD CHENEY HWY,E COLONIAL DR,OLD CHENEY HWY,28.5534596,-81.32132158
366,E COLONIAL DR AND JAMAJO BLVD,E COLONIAL DR,JAMAJO BLVD,28.55352572,-81.32435622
367,E COLONIAL DR AND LAKE BALDWIN LN,E COLONIAL DR,LAKE BALDWIN LN,28.553513,-81.32706309
368,E COLONIAL DR AND GEAR LAKE AVE,E COLONIAL DR,GEAR LAKE AVE,28.55355511,-81.3298364
369,W COLONIAL DR AND RAMONA LN,W COLONIAL DR,RAMONA LN,28.55301218,-81.40040363
370,W SOUTH ST AND LIME AVE,W SOUTH ST,LIME AVE,28.53835441,-81.38786016
371,W ANDERSON ST AND GLENN ALLEY,W ANDERSON ST,GLENN ALLEY,28.53646206,-81.39070195
372,N WESTMORELAND DR AND MACBRO CT,N WESTMORELAND DR,MACBRO CT,28.54259895,-81.39312017
373,N WESTMORELAND DR AND W WASHINGTON ST,N WESTMORELAND DR,W WASHINGTON ST,28.54373601,-81.39311506
374,N WESTMORELAND DR AND W LIVINGSTON ST,N WESTMORELAND DR,W LIVINGSTON ST,28.54777589,-81.39319148
375,N WESTMORELAND DR AND W AMELIA ST,N WESTMORELAND DR,W AMELIA ST,28.54901164,-81.39334082
376,N WESTMORELAND DR AND W CENTRAL BLVD,N WESTMORELAND DR,W CENTRAL BLVD,28.54250782,-81.39322944
377,W CENTRLAL BLVD AND S DIVISION AVE,W CENTRLAL BLVD,S DIVISION AVE,28.54191766,-81.38593261
378,W WASHINGTON ST AND BENSON AVE,W WASHINGTON ST,BENSON AVE,28.54391362,-81.39516074
379,W CENTRLAL BLVD AND N TERRY AVE,W CENTRLAL BLVD,N TERRY AVE,28.54209819,-81.38721934
380,N PARRAMORE AVE AND OSSIE ST,N PARRAMORE AVE,OSSIE ST,28.5435756,-81.38900548
381,EDGEWATER DR AND RUGBY ST,EDGEWATER DR,RUGBY ST,28.57339855,-81.38939367
382,EDGEWATER DR AND W HAZEL ST,EDGEWATER DR,W HAZEL ST,28.57785798,-81.38946065
383,N PARRAMORE AVE AND FEDERAL ST,N PARRAMORE AVE,FEDERAL ST,28.54831331,-81.38918063
384,N PARRAMORE AVE AND W WASHINGTON ST,N PARRAMORE AVE,W WASHINGTON ST,28.54366314,-81.38911557
385,S ORANGE AVE AND W ILLIANA ST,S ORANGE AVE,W ILLIANA ST,28.51138491,-81.37620127
386,S ROSALIND AVE AND E JACKSON ST,S ROSALIND AVE,E JACKSON ST,28.53952604,-81.37568708
387,E MICHIGAN ST AND DELNY AVE,E MICHIGAN ST,DELNY AVE,28.51286833,-81.37173468
388,S DIVISION AVE AND W PINE ST,S DIVISION AVE,W PINE ST,28.54064758,-81.38500699
389,W MICHIGAN ST AND TAYLOR AVE,W MICHIGAN ST,TAYLOR AVE,28.51280327,-81.37806505
390,W MILLER ST AND LUCERNE TER,W MILLER ST,LUCERNE TER,28.5239057,-81.38035283
391,CURRY FORD RD AND EDMUNDSHIRE LN,CURRY FORD RD,EDMUNDSHIRE LN,28.52414231,-81.33286571
392,CURRY FORD RD AND WOOCO WAY,CURRY FORD RD,WOOCO WAY,28.52401677,-81.31199535
393,CURRY FORD RD AND BOWEN DR,CURRY FORD RD,BOWEN DR,28.52192478,-81.30636575
394,CURRY FORD RD AND TROTTER ST,CURRY FORD RD,TROTTER ST,28.5213242,-81.30473589
395,CURRY FORD RD AND RAPER DAIRY RD,CURRY FORD RD,RAPER DAIRY RD,28.52083395,-81.30344927
396,CURRY FORD RD AND RAPER DAIRY RD,CURRY FORD RD,RAPER DAIRY RD,28.52017249,-81.30161671
397,CURRY FORD RD AND CARALEE BLVD,CURRY FORD RD,CARALEE BLVD,28.51940772,-81.29955761
398,CURRY FORD RD AND TROTTER ST,CURRY FORD RD,TROTTER ST,28.52155413,-81.30463766
399,CURRY FORD RD AND LARKIN AVE,CURRY FORD RD,LARKIN AVE,28.52445254,-81.3167729
400,CURRY FORD RD AND LOCKWOOD AVE,CURRY FORD RD,LOCKWOOD AVE,28.52440253,-81.3223453
401,CURRY FORD RD AND GASTON FOSTER RD,CURRY FORD RD,GASTON FOSTER RD,28.52439103,-81.32469329
402,CURRY FORD RD AND FOXBORO DR,CURRY FORD RD,FOXBORO DR,28.52442274,-81.3271213
403,CURRY FORD RD AND BERWYN RD,CURRY FORD RD,BERWYN RD,28.52432681,-81.33656885
404,CURRY FORD RD AND DUNSANY AVE,CURRY FORD RD,DUNSANY AVE,28.52430715,-81.3382683
405,E CENTRLAL BLVD AND ROSEARDEN DR,E CENTRLAL BLVD,ROSEARDEN DR,28.54290214,-81.35838319
406,ORANGE CENTER BLVD AND S TAMPA AVE,ORANGE CENTER BLVD,S TAMPA AVE,28.53215801,-81.4060026
407,S PARRAMORE AVE AND CARTER ST,S PARRAMORE AVE,CARTER ST,28.5340223,-81.38887658
408,N MILLS AVE AND E COLONIAL DR,N MILLS AVE,E COLONIAL DR,28.55301022,-81.36438239
409,S PARRAMORE AVE AND W SOUTH ST,S PARRAMORE AVE,W SOUTH ST,28.53798303,-81.38905493
410,S PARRAMORE AVE AND CONLEY ST,S PARRAMORE AVE,CONLEY ST,28.53264486,-81.38897532
411,E SOUTH ST AND LAKE AVE,E SOUTH ST,LAKE AVE,28.5384994,-81.37284673
412,LAKE UNDERHILL RD AND CONWAY RD,LAKE UNDERHILL RD,CONWAY RD,28.53743718,-81.3296556
413,S SEMORAN BLVD AND ANDORA ST,S SEMORAN BLVD,ANDORA ST,28.53516186,-81.31065227
414,S BUMBY AVE AND E PINE ST,S BUMBY AVE,E PINE ST,28.54113792,-81.3520123
415,E SOUTH ST AND MCJORDAN AVE,E SOUTH ST,MCJORDAN AVE,28.5386648,-81.35720275
416,E SOUTH ST AND REEVES CT,E SOUTH ST,REEVES CT,28.53862895,-81.36011101
417,CONWAY RD AND YORKSHIRE LN,CONWAY RD,YORKSHIRE LN,28.52249694,-81.33114237
418,CONWAY RD AND LANCASHIRE LN,CONWAY RD,LANCASHIRE LN,28.51991678,-81.33112128
419,S CONWAY RD AND E MICHIGAN ST,S CONWAY RD,E MICHIGAN ST,28.5147649,-81.33110742
420,CONWAY RD AND E MICHIGAN ST,CONWAY RD,E MICHIGAN ST,28.51256641,-81.33106872
421,CONWAY RD AND LAKE TENNESSEE DR,CONWAY RD,LAKE TENNESSEE DR,28.5084191,-81.33102509
422,CONWAY RD AND LANDTREE PL,CONWAY RD,LANDTREE PL,28.50798665,-81.33077714
423,CONWAY RD AND E MICHIGAN ST,CONWAY RD,E MICHIGAN ST,28.5125504,-81.3308336
424,CONWAY RD AND E MICHIGAN ST,CONWAY RD,E MICHIGAN ST,28.51437962,-81.33083154
425,CONWAY RD AND LANCASHIRE LN,CONWAY RD,LANCASHIRE LN,28.51982537,-81.33089136
426,S WESTMORELAND DR AND W CHURCH ST,S WESTMORELAND DR,W CHURCH ST,28.53968691,-81.39327182
427,S WESTMORELAND DR AND W SOUTH ST,S WESTMORELAND DR,W SOUTH ST,28.53844018,-81.39325795
428,S WESTMORELAND DR AND W GORE ST,S WESTMORELAND DR,W GORE ST,28.53155866,-81.3931045
429,S WESTMORELAND DR AND W SOUTH ST,S WESTMORELAND DR,W SOUTH ST,28.538147,-81.39303823
430,W CENTRLAL BLVD AND WILBE AVE,W CENTRLAL BLVD,WILBE AVE,28.54267077,-81.40249045
431,E JACKSON ST AND LAKE AVE,E JACKSON ST,LAKE AVE,28.53916619,-81.37318373
432,S SEMORAN BLVD AND HOFFNER AVE,S SEMORAN BLVD,HOFFNER AVE,28.47869343,-81.30989735
433,S SEMORAN BLVD AND TURNBULL DR,S SEMORAN BLVD,TURNBULL DR,28.48564309,-81.30995079
434,W COLONIAL DR AND MERCY DR,W COLONIAL DR,MERCY DR,28.55283051,-81.43017846
435,N JOHN YOUNG PKY AND W LIVINGSTON ST,N JOHN YOUNG PKY,W LIVINGSTON ST,28.54774873,-81.41354895
436,N JOHN YOUNG PKY AND W CONCORD ST,N JOHN YOUNG PKY,W CONCORD ST,28.55005137,-81.41356667
437,BLACKWOOD AVE AND W COLONIAL DR,BLACKWOOD AVE,W COLONIAL DR,28.55019441,-81.52950903
438,S DIVISION AVE AND W ANDERSON ST,S DIVISION AVE,W ANDERSON ST,28.53610598,-81.38494534
439,S PARRAMORE AVE AND PIEDMONT ST,S PARRAMORE AVE,PIEDMONT ST,28.53042725,-81.38901605
440,E LIVINGSTON ST AND N MAGNOLIA AVE,E LIVINGSTON ST,N MAGNOLIA AVE,28.54767485,-81.37811466
441,N ORANGE AVE AND E SMITH ST,N ORANGE AVE,E SMITH ST,28.57235436,-81.37294329
442,N ORANGE AVE AND E SMITH ST,N ORANGE AVE,E SMITH ST,28.57202346,-81.37273879
443,GRAND ST AND S LEE AVE,GRAND ST,S LEE AVE,28.52649121,-81.39061204
444,E LIVINGSTON ST AND N MAGNOLIA AVE,E LIVINGSTON ST,N MAGNOLIA AVE,28.54757911,-81.37811694
445,S WESTMORELAND DR AND W GORE ST,S WESTMORELAND DR,W GORE ST,28.531581,-81.3929603
446,E MICHIGAN ST AND GOWEN ST,E MICHIGAN ST,GOWEN ST,28.51307526,-81.35393359
447,CURRY FORD RD AND S CRYSTAL LAKE DR,CURRY FORD RD,S CRYSTAL LAKE DR,28.52408038,-81.34291275
448,CURRY FORD RD AND SILVERSTONE AVE,CURRY FORD RD,SILVERSTONE AVE,28.52434064,-81.33436319
449,CURRY FORD RD AND ROSCOMARE AVE,CURRY FORD RD,ROSCOMARE AVE,28.52413923,-81.33448342
450,N ORANGE BLOSSOM TRL AND W CONCORD ST,N ORANGE BLOSSOM TRL,W CONCORD ST,28.55116915,-81.39639041
451,WESTGATE DR AND RALEIGH ST,WESTGATE DR,RALEIGH ST,28.53087731,-81.46759255
452,WESTGATE DR AND RALEIGH ST,WESTGATE DR,RALEIGH ST,28.53292093,-81.46616238
453,WESTGATE DR AND S KIRKMAN RD,WESTGATE DR,S KIRKMAN RD,28.53227275,-81.46431053
454,WESTGATE DR AND S KIRKMAN RD,WESTGATE DR,S KIRKMAN RD,28.53196081,-81.45979565
455,S KIRKMAN RD AND ARNOLD PALMER DR,S KIRKMAN RD,ARNOLD PALMER DR,28.50843393,-81.45927568
456,S KIRKMAN RD AND WINDHOVER DR,S KIRKMAN RD,WINDHOVER DR,28.48623408,-81.4591259
457,S SEMORAN BLVD AND FIVE FLAGS BLVD,S SEMORAN BLVD,FIVE FLAGS BLVD,28.50622279,-81.31002452
458,S SEMORAN BLVD AND E MICHIGAN ST,S SEMORAN BLVD,E MICHIGAN ST,28.51317906,-81.31010652
459,VINELAND AVE AND ARREZZO WAY,VINELAND AVE,ARREZZO WAY,28.3868958,-81.48803602
460,VINELAND AVE AND ARREZZO WAY,VINELAND AVE,ARREZZO WAY,28.38671209,-81.48822185
461,S SEMORAN BLVD AND E MICHIGAN ST,S SEMORAN BLVD,E MICHIGAN ST,28.51420549,-81.31055363
462,S SEMORAN BLVD AND PERSHING AVE,S SEMORAN BLVD,PERSHING AVE,28.49842187,-81.31046025
463,N FORSYTH RD AND UNIVERSITY BLVD,N FORSYTH RD,UNIVERSITY BLVD,28.60037908,-81.29893784
464,S SEMORAN BLVD AND E GRANT ST,S SEMORAN BLVD,E GRANT ST,28.51816461,-81.31009551
465,E SOUTH ST AND S MILLS AVE,E SOUTH ST,S MILLS AVE,28.53859444,-81.3639988
466,MILLENIA BLVD AND NORTHBRIDGE DR,MILLENIA BLVD,NORTHBRIDGE DR,28.47923061,-81.4421576
467,S ORANGE AVE AND 4TH ST,S ORANGE AVE,4TH ST,28.42767858,-81.36958076
468,INTERNATIONAL DR AND GRANDNATIONAL DR,INTERNATIONAL DR,GRANDNATIONAL DR,28.46219803,-81.45563253
469,W SAND LAKE RD AND UNIVERSAL BLVD,W SAND LAKE RD,UNIVERSAL BLVD,28.45021391,-81.46629234
470,TURKEY LAKE RD AND UNIVERSAL STUDIOS PLZ,TURKEY LAKE RD,UNIVERSAL STUDIOS PLZ,28.47402503,-81.47478015
471,VINELAND RD AND BACKLOT DR,VINELAND RD,BACKLOT DR,28.4816018,-81.47084901
472,S KIRKMAN RD AND WINDHOVER DR,S KIRKMAN RD,WINDHOVER DR,28.48601611,-81.45865325
473,S KIRKMAN RD AND L B MCLEOD RD,S KIRKMAN RD,L B MCLEOD RD,28.50637904,-81.45875723
474,WESTGATE DR AND RALEIGH ST,WESTGATE DR,RALEIGH ST,28.5330312,-81.46626476
475,WESTGATE DR AND RALEIGH ST,WESTGATE DR,RALEIGH ST,28.53094316,-81.46775178
476,WESTGATE DR AND RALEIGH ST,WESTGATE DR,RALEIGH ST,28.52853639,-81.46766351
477,S JOHN YOUNG PKY AND W CHURCH ST,S JOHN YOUNG PKY,W CHURCH ST,28.53818693,-81.41371038
478,SPAULDING RD AND S GOLDWYN AVE,SPAULDING RD,S GOLDWYN AVE,28.53243114,-81.41831454
479,COLUMBIA ST AND AMAROS AVE,COLUMBIA ST,AMAROS AVE,28.52707093,-81.4300179
480,EDGEMOOR ST AND N IVEY LN,EDGEMOOR ST,N IVEY LN,28.54256239,-81.434809
481,EDGEMOOR ST AND N IVEY LN,EDGEMOOR ST,N IVEY LN,28.54268041,-81.43491074
482,COLUMBIA ST AND AMAROS AVE,COLUMBIA ST,AMAROS AVE,28.52707571,-81.43140972
483,COLUMBIA ST AND DREW AVE,COLUMBIA ST,DREW AVE,28.52691815,-81.42392211
484,S JOHN YOUNG PKY AND C R SMITH ST,S JOHN YOUNG PKY,C R SMITH ST,28.53480548,-81.4139699
485,W CHURCH ST AND S OHIO AVE,W CHURCH ST,S OHIO AVE,28.54011981,-81.41116555
486,CONROY RD AND EMERALD FOREST WAY,CONROY RD,EMERALD FOREST WAY,28.49623065,-81.43797322
487,CONROY RD AND CASON COVE DR,CONROY RD,CASON COVE DR,28.49689335,-81.43951612
488,CONROY RD AND PRES BARACK OBAMA PKY,CONROY RD,PRES BARACK OBAMA PKY,28.49730691,-81.44295292
489,CONROY RD AND MIDDLEBROOK RD,CONROY RD,MIDDLEBROOK RD,28.49463193,-81.45173709
490,CONROY RD AND PINE CREEK DR,CONROY RD,PINE CREEK DR,28.49418449,-81.45518787
491,BACKLOT DR AND UNIVERSAL STUDIOS PLZ,BACKLOT DR,UNIVERSAL STUDIOS PLZ,28.47873797,-81.47187966
492,CONROY RD AND LAWING LN,CONROY RD,LAWING LN,28.49381779,-81.45817211
493,CONROY RD AND PINE CREEK DR,CONROY RD,PINE CREEK DR,28.49392574,-81.45575795
494,CONROY RD AND CYPRESS WOODS DR,CONROY RD,CYPRESS WOODS DR,28.49442743,-81.4516416
495,CONROY RD AND MIDDLEBROOK RD,CONROY RD,MIDDLEBROOK RD,28.49589509,-81.44859376
496,INTERNATIONAL DR AND MUNICIPAL DR,INTERNATIONAL DR,MUNICIPAL DR,28.46231378,-81.45177907
497,KIRKLAND BLVD AND MANTILLA AVE,KIRKLAND BLVD,MANTILLA AVE,28.51637191,-81.42941621
498,MABLE BUTLER AVE AND COLUMBIA ST,MABLE BUTLER AVE,COLUMBIA ST,28.52655812,-81.42089112
499,PRINCE HALL BLVD AND MARY CHURCH CT,PRINCE HALL BLVD,MARY CHURCH CT,28.51211847,-81.42829491
500,BETHUNE DR AND LEWIS CT,BETHUNE DR,LEWIS CT,28.52833729,-81.42023999
501,MAJOR BLVD AND CARAVAN CT,MAJOR BLVD,CARAVAN CT,28.47805801,-81.45720311
502,MAJOR BLVD AND CARAVAN CT,MAJOR BLVD,CARAVAN CT,28.47770793,-81.45686975
503,VINELAND RD AND CONROY RD,VINELAND RD,CONROY RD,28.49646633,-81.43421573
504,33RD ST AND VISION BLVD,33RD ST,VISION BLVD,28.50866069,-81.41543552
505,RALEIGH ST AND FRAZIER AVE,RALEIGH ST,FRAZIER AVE,28.5276659,-81.45435862
506,S KIRKMAN RD AND CONROY RD,S KIRKMAN RD,CONROY RD,28.49472164,-81.4587165
507,S KIRKMAN RD AND PNE SHADOWS PKY,S KIRKMAN RD,PNE SHADOWS PKY,28.50145799,-81.45874528
508,S KIRKMAN RD AND METROPOLIS WAY,S KIRKMAN RD,METROPOLIS WAY,28.51567374,-81.45889648
509,S KIRKMAN RD AND RALEIGH ST,S KIRKMAN RD,RALEIGH ST,28.52885757,-81.45903729
510,S KIRKMAN RD AND PREFERRED PKY,S KIRKMAN RD,PREFERRED PKY,28.529703,-81.45954382
511,S KIRKMAN RD AND METROWEST BLVD,S KIRKMAN RD,METROWEST BLVD,28.51278623,-81.45931359
512,S KIRKMAN RD AND PINE SHADOWS PKY,S KIRKMAN RD,PINE SHADOWS PKY,28.49960231,-81.4592251
513,S HIAWASSEE RD AND FAIRWAY COVE DR,S HIAWASSEE RD,FAIRWAY COVE DR,28.52785247,-81.47409162
514,COLUMBIA ST AND OLA DR,COLUMBIA ST,OLA DR,28.5269214,-81.42498332
515,MILLENIA BLVD AND NORTHBRIDGE DR,MILLENIA BLVD,NORTHBRIDGE DR,28.47774476,-81.4421542
516,METRLOCENTER BLVD AND METROWEST BLVD,METRLOCENTER BLVD,METROWEST BLVD,28.51759597,-81.46866426
517,METRLOWEST BLVD AND WILSHIRE DR,METRLOWEST BLVD,WILSHIRE DR,28.51367223,-81.46248167
518,METRLOWEST BLVD AND WILSHIRE DR,METRLOWEST BLVD,WILSHIRE DR,28.51400041,-81.46242582
519,MILLENIA BLVD AND W OAK RIDGE RD,MILLENIA BLVD,W OAK RIDGE RD,28.47339531,-81.44213523
520,COLUMBIA ST AND LAKE PARK CT,COLUMBIA ST,LAKE PARK CT,28.52658633,-81.41744706
521,COLUMBIA ST AND S IVEY LN,COLUMBIA ST,S IVEY LN,28.52765371,-81.43325491
522,S ORANGE AVE AND OAKWATER CIR,S ORANGE AVE,OAKWATER CIR,28.50111626,-81.37607364
523,E MICHIGAN ST AND S SHINE AVE,E MICHIGAN ST,S SHINE AVE,28.51302739,-81.36056795
524,HOFFNER AVE AND CONWAY RD,HOFFNER AVE,CONWAY RD,28.4803866,-81.33004049
525,CONWAY RD AND OLD DOMINION RD,CONWAY RD,OLD DOMINION RD,28.49231814,-81.3307217
526,CONWAY RD AND GATLIN AVE,CONWAY RD,GATLIN AVE,28.49451593,-81.33073563
527,CONWAY RD AND KILDAIRE AVE,CONWAY RD,KILDAIRE AVE,28.50690006,-81.33102137
528,HOFFNER AVE AND S SEMORAN BLVD,HOFFNER AVE,S SEMORAN BLVD,28.48072173,-81.31118516
529,CONWAY RD AND MASSACHUSETTS ST,CONWAY RD,MASSACHUSETTS ST,28.50539041,-81.33078097
530,S BUMBY AVE AND RAEHN ST,S BUMBY AVE,RAEHN ST,28.52482315,-81.35160504
531,LAKE MARGARET DR AND DIXIE BELLE DR,LAKE MARGARET DR,DIXIE BELLE DR,28.50615514,-81.31269
532,HANSEL AVE AND HOFFNER AVE,HANSEL AVE,HOFFNER AVE,28.47588075,-81.36782232
533,HANSEL AVE AND LAKE HARBOR CIR,HANSEL AVE,LAKE HARBOR CIR,28.47807892,-81.36893518
534,S ORANGE AVE AND HOLDEN AVE,S ORANGE AVE,HOLDEN AVE,28.49503631,-81.37486596
535,MILLENIA BLVD AND TOPIARY DR,MILLENIA BLVD,TOPIARY DR,28.4881381,-81.43452038
536,MILLENIA BLVD AND CONROY RD,MILLENIA BLVD,CONROY RD,28.48904445,-81.43201363
537,CONROY RD AND EASTGATE DR,CONROY RD,EASTGATE DR,28.48695046,-81.42636549
538,S SEMORAN BLVD AND NORTH FRONTAGE RD,S SEMORAN BLVD,NORTH FRONTAGE RD,28.45987411,-81.31027624
539,S SEMORAN BLVD AND LEEVISTA BLVD,S SEMORAN BLVD,LEEVISTA BLVD,28.46822509,-81.31028546
540,S SEMORAN BLVD AND HAZELTINE NATIONAL DR,S SEMORAN BLVD,HAZELTINE NATIONAL DR,28.46240491,-81.31027386
541,S SEMORAN BLVD AND BUTLER NATIONAL DR,S SEMORAN BLVD,BUTLER NATIONAL DR,28.46665041,-81.30986196
542,AVE OF THE STARS AND BACKSTAGE LN,AVE OF THE STARS,BACKSTAGE LN,28.37109462,-81.54432015
543,W IRLO BRONSON MEM HWY AND BLACK LAKE RD,W IRLO BRONSON MEM HWY,BLACK LAKE RD,28.34700809,-81.60653333
544,BUS SHELTER RD AND SAVANNAH CIR W,BUS SHELTER RD,SAVANNAH CIR W,28.35265601,-81.59085916
545,HOTEL PLZ BLVD AND E BUENA VISTA DR,HOTEL PLZ BLVD,E BUENA VISTA DR,28.3757001,-81.50903045
546,E SILVER STAR RD AND LAKE JOHIO RD,E SILVER STAR RD,LAKE JOHIO RD,28.57362834,-81.51463079
547,E COLONIAL DR AND N THORNTON AVE,E COLONIAL DR,N THORNTON AVE,28.55327688,-81.36538559
548,S ORANGE AVE AND FERNWOOD ST,S ORANGE AVE,FERNWOOD ST,28.52540394,-81.37633274
549,S SEMORAN BLVD AND HOFFNER AVE,S SEMORAN BLVD,HOFFNER AVE,28.48163332,-81.30989166
550,EDGEWATER DR AND W WINTER PARK ST,EDGEWATER DR,W WINTER PARK ST,28.57516868,-81.38941178
551,E ANDERSON ST AND S MAGNOLIA AVE,E ANDERSON ST,S MAGNOLIA AVE,28.53698591,-81.37678434
552,COLUMBIA ST AND FLORENCE AVE,COLUMBIA ST,FLORENCE AVE,28.52687137,-81.42876869
553,VINELAND RD AND CONROY RD,VINELAND RD,CONROY RD,28.49566921,-81.43515929
554,S JOHN YOUNG PKY AND CONROY RD,S JOHN YOUNG PKY,CONROY RD,28.48817584,-81.41759196
555,S SEMORAN BLVD AND T G LEE BLVD,S SEMORAN BLVD,T G LEE BLVD,28.46088808,-81.30981468
556,S SEMORAN BLVD AND BENT PINE DR,S SEMORAN BLVD,BENT PINE DR,28.47550872,-81.30988943
557,S CENTRLAL AVE AND M A BRD ST,S CENTRLAL AVE,M A BRD ST,28.67000232,-81.51082785
558,S SEMORAN BLVD AND LAKE MARGARET DR,S SEMORAN BLVD,LAKE MARGARET DR,28.5084621,-81.31049373
559,S SEMORAN BLVD AND ANNSHIRE WAY,S SEMORAN BLVD,ANNSHIRE WAY,28.5014609,-81.31045277
560,S SEMORAN BLVD AND HOFFNER AVE,S SEMORAN BLVD,HOFFNER AVE,28.4796378,-81.31033221
561,W IRLO BRONSON MEM HWY AND SEVEN DWARFS LN,W IRLO BRONSON MEM HWY,SEVEN DWARFS LN,28.32670058,-81.47108853
562,W IRLO BRONSON MEM HWY AND SIESTA LAGO DR,W IRLO BRONSON MEM HWY,SIESTA LAGO DR,28.32082679,-81.47104344
563,W IRLO BRONSON MEM HWY AND INTERIOR ST,W IRLO BRONSON MEM HWY,INTERIOR ST,28.31580913,-81.46884785
564,W IRLO BRONSON MEM HWY AND FOUR WINDS BLVD,W IRLO BRONSON MEM HWY,FOUR WINDS BLVD,28.30898216,-81.46513473
565,W VINE ST AND OLD VINELAND RD,W VINE ST,OLD VINELAND RD,28.30398574,-81.45842991
566,W VINE ST AND N BASS RD,W VINE ST,N BASS RD,28.30364255,-81.45663863
567,W VINE ST AND INTERIOR ST,W VINE ST,INTERIOR ST,28.30446063,-81.45012314
568,W IRLO BRONSON MEM HWY AND OREN BROWN RD,W IRLO BRONSON MEM HWY,OREN BROWN RD,28.30609183,-81.46299906
569,W IRLO BRONSON MEM HWY AND FOUR WINDS BLVD,W IRLO BRONSON MEM HWY,FOUR WINDS BLVD,28.3094735,-81.4649511
570,W IRLO BRONSON MEM HWY AND INTERIOR ST,W IRLO BRONSON MEM HWY,INTERIOR ST,28.31618626,-81.46860292
571,W IRLO BRONSON MEM HWY AND SIESTA LAGO DR,W IRLO BRONSON MEM HWY,SIESTA LAGO DR,28.32003083,-81.47045999
572,S SEMORAN BLVD AND ABERCORN DR,S SEMORAN BLVD,ABERCORN DR,28.4865885,-81.3103589
573,S SEMORAN BLVD AND ST CHARLES PRADO,S SEMORAN BLVD,ST CHARLES PRADO,28.4909872,-81.30998631
574,S SEMORAN BLVD AND ELIZABETHAN DR,S SEMORAN BLVD,ELIZABETHAN DR,28.50253417,-81.31003233
575,S SEMORAN BLVD AND CURRY FORD RD,S SEMORAN BLVD,CURRY FORD RD,28.52116,-81.31013004
576,E KENNEDY BLVD AND S CALHOUN AVE,E KENNEDY BLVD,S CALHOUN AVE,28.61855948,-81.37954448
577,E KENNEDY BLVD AND N CALHOUN AVE,E KENNEDY BLVD,N CALHOUN AVE,28.6184513,-81.37897038
578,MERCY DR AND KALWIT LN,MERCY DR,KALWIT LN,28.56051353,-81.43061379
579,MINNESOTA AVE AND CLAY ST,MINNESOTA AVE,CLAY ST,28.58942946,-81.37347359
580,S KIRKMAN RD AND METROPOLIS WAY,S KIRKMAN RD,METROPOLIS WAY,28.51660459,-81.4593873
581,W MILLER ST AND KUHL AVE,W MILLER ST,KUHL AVE,28.52393396,-81.37788616
582,N ORANGE AVE AND LEGION PL,N ORANGE AVE,LEGION PL,28.55831159,-81.37909043
583,LANDSTAR BLVD AND ARBOR MEADOWS BLVD,LANDSTAR BLVD,ARBOR MEADOWS BLVD,28.3650613,-81.36648158
584,LANDSTAR BLVD AND ARBOR MEADOWS BLVD,LANDSTAR BLVD,ARBOR MEADOWS BLVD,28.36498602,-81.36673438
585,S JOHN YOUNG PKY AND CONROY RD,S JOHN YOUNG PKY,CONROY RD,28.48519517,-81.41763909
586,N HIAWASSEE RD AND CLARCONA OCOEE RD,N HIAWASSEE RD,CLARCONA OCOEE RD,28.61416915,-81.47629132
587,E 13TH ST AND S HIGHLAND AVE,E 13TH ST,S HIGHLAND AVE,28.66209488,-81.50491212
588,INTERNATIONAL DR AND FLORIDAYS RESORT DR,INTERNATIONAL DR,FLORIDAYS RESORT DR,28.38638645,-81.48175317
589,COMMUNITY DR AND BONNET CREEK PKY,COMMUNITY DR,BONNET CREEK PKY,28.37720314,-81.53619319
590,EPCOT RESORTS BLVD AND E BUENA VISTA DR,EPCOT RESORTS BLVD,E BUENA VISTA DR,28.36619002,-81.5538193
591,CORONADO CIR AND WESTERN WAY,CORONADO CIR,WESTERN WAY,28.36165806,-81.57490502
592,N HIAWASSEE RD AND SANDY LN DR,N HIAWASSEE RD,SANDY LN DR,28.63744008,-81.47517442
593,SILVER STAR RD AND DINNEEN AVE,SILVER STAR RD,DINNEEN AVE,28.57826424,-81.41160686
594,WESTGATE DR AND S KIRKMAN RD,WESTGATE DR,S KIRKMAN RD,28.53213741,-81.46047041
595,E SR 434 AND APACHE TRL,E SR 434,APACHE TRL,28.7009181,-81.26618345
596,E KENNEDY BLVD AND N COLLEGE AVE,E KENNEDY BLVD,N COLLEGE AVE,28.61826006,-81.38182622
597,LAKE UNDERHILL RD AND SAN JUAN BLVD,LAKE UNDERHILL RD,SAN JUAN BLVD,28.53912618,-81.31819412
598,W SR 434 AND VISTAWILLA DR,W SR 434,VISTAWILLA DR,28.69027574,-81.23371175
599,W SR 434 AND VISTAWILLA DR,W SR 434,VISTAWILLA DR,28.6899886,-81.23321818
600,W SR 434 AND RANGELINE RD,W SR 434,RANGELINE RD,28.69778971,-81.36167236
601,E SR 434 AND CENTRAL WINDS DR,E SR 434,CENTRAL WINDS DR,28.70485074,-81.27082204
602,E SR 434 AND PARKSTONE BLVD,E SR 434,PARKSTONE BLVD,28.70491809,-81.28175761
603,E SR 434 AND COSTA RICA DR,E SR 434,COSTA RICA DR,28.69889377,-81.30232612
604,E SR 434 AND STONE GABLE CIR,E SR 434,STONE GABLE CIR,28.70415689,-81.28594196
605,E SR 434 AND WINDING HOLLOW BLVD,E SR 434,WINDING HOLLOW BLVD,28.70462378,-81.28177481
606,ALAFAYA TRL AND ALEXANDRIA BLVD,ALAFAYA TRL,ALEXANDRIA BLVD,28.65112281,-81.20795902
607,CORPORATE CENTRLE BLVD AND LEEVISTA BLVD,CORPORATE CENTRLE BLVD,LEEVISTA BLVD,28.46703297,-81.29735756
608,CORPORATE CENTRLE BLVD AND LEEVISTA BLVD,CORPORATE CENTRLE BLVD,LEEVISTA BLVD,28.46667947,-81.29702046
609,W SR 434 AND SHEOAH BLVD,W SR 434,SHEOAH BLVD,28.69787943,-81.31384335
610,S DIVISION AVE AND W CENTRAL BLVD,S DIVISION AVE,W CENTRAL BLVD,28.54163803,-81.38502812
611,E COLONIAL DR AND N SEMORAN BLVD,E COLONIAL DR,N SEMORAN BLVD,28.55744229,-81.3095167
612,WALMART DR AND TOWNE CENTER DR,WALMART DR,TOWNE CENTER DR,28.14333576,-81.44907481
613,N JOHN YOUNG PKY AND W PRINCETON ST,N JOHN YOUNG PKY,W PRINCETON ST,28.57250163,-81.4176051
614,E COLONIAL DR AND BARTON DR,E COLONIAL DR,BARTON DR,28.55576469,-81.3124567
615,W SR 434 AND CTNEY SPRINGS CIR,W SR 434,CTNEY SPRINGS CIR,28.68992951,-81.23769181
616,CONWAY RD AND ROCKLEDGE RD,CONWAY RD,ROCKLEDGE RD,28.53598105,-81.33132047
617,GEMINI BLVD N AND GEMINI BLVD N,GEMINI BLVD N,GEMINI BLVD N,28.60619541,-81.19792118
618,T P C DR AND LEEVISTA BLVD,T P C DR,LEEVISTA BLVD,28.46402519,-81.29680674
619,MAGNOLIA HOMES RD AND ORWOOD RD,MAGNOLIA HOMES RD,ORWOOD RD,28.6145282,-81.42750408
620,N POWERS DR AND CLARCONA OCOEE RD,N POWERS DR,CLARCONA OCOEE RD,28.61035018,-81.4680257
621,HOTEL PLZ BLVD AND STATE RD 535,HOTEL PLZ BLVD,STATE RD 535,28.37908632,-81.50766528
622,HOTEL PLZ BLVD AND STATE RD 535,HOTEL PLZ BLVD,STATE RD 535,28.37923452,-81.50739237
623,N PINE HILLS RD AND BELCO DR,N PINE HILLS RD,BELCO DR,28.58089716,-81.45167668
624,S ORANGE AVE AND W ANDERSON ST,S ORANGE AVE,W ANDERSON ST,28.53660041,-81.37875933
625,E 17TH ST AND MICHIGAN AVE,E 17TH ST,MICHIGAN AVE,28.24245497,-81.27620933
626,HANGING MOSS RD AND MERCATOR DR,HANGING MOSS RD,MERCATOR DR,28.57893906,-81.30072407
627,N GOLDENROD RD AND LAUREL SPRINGS DR,N GOLDENROD RD,LAUREL SPRINGS DR,28.58993833,-81.28656762
628,N GOLDENROD RD AND DANIEL WEBSTER DR,N GOLDENROD RD,DANIEL WEBSTER DR,28.58380861,-81.28644886
629,N MILLS AVE AND LAKE HIGHLAND DR,N MILLS AVE,LAKE HIGHLAND DR,28.56163421,-81.36457924
630,LAKE UNDERHILL RD AND CONWAY RD,LAKE UNDERHILL RD,CONWAY RD,28.53721406,-81.33246136
631,GAZELLE DR AND COYOTE RD,GAZELLE DR,COYOTE RD,28.11614075,-81.4644749
632,10TH ST AND MASSACHUSETTS AVE,10TH ST,MASSACHUSETTS AVE,28.2488743,-81.28419508
633,10TH ST AND PENNSYLVANIA AVE,10TH ST,PENNSYLVANIA AVE,28.24887152,-81.28214571
634,MILL SLOUGH RD AND BROOKSIDE CT,MILL SLOUGH RD,BROOKSIDE CT,28.31521886,-81.38824261
635,MILL SLOUGH RD AND PINE TREE TER,MILL SLOUGH RD,PINE TREE TER,28.31517147,-81.38432812
636,DENN JOHN LN AND EAST OAK LEAF LN,DENN JOHN LN,EAST OAK LEAF LN,28.31232528,-81.37925389
637,DENN JOHN LN AND EAST OAK LEAF LN,DENN JOHN LN,EAST OAK LEAF LN,28.31191561,-81.37907431
638,MILL SLOUGH RD AND SHENANDOAH LN,MILL SLOUGH RD,SHENANDOAH LN,28.31532032,-81.38314287
639,MILL SLOUGH RD AND TOWN AND COUNTRY DR,MILL SLOUGH RD,TOWN AND COUNTRY DR,28.31535503,-81.38822997
640,N CENTRLAL AVE AND W CHERRY ST,N CENTRLAL AVE,W CHERRY ST,28.30372666,-81.40792454
641,W OAK ST AND OAK COMMONS BLVD,W OAK ST,OAK COMMONS BLVD,28.30100167,-81.41055038
642,N JOHN YOUNG PKY AND MARTIN LUTHER KING BLVD,N JOHN YOUNG PKY,MARTIN LUTHER KING BLVD,28.29800646,-81.41620334
643,EMMETT ST AND S CLYDE AVE,EMMETT ST,S CLYDE AVE,28.29164043,-81.41292841
644,BRDWAY AND E DAKIN AVE,BRDWAY,E DAKIN AVE,28.29391545,-81.40554192
645,N MAIN ST AND E BASS ST,N MAIN ST,E BASS ST,28.2985724,-81.4035713
646,N MAIN ST AND E OAK ST,N MAIN ST,E OAK ST,28.30074116,-81.40356365
647,N MAIN ST AND E CYPRESS ST,N MAIN ST,E CYPRESS ST,28.30539574,-81.40357085
648,N MAIN ST AND W COLUMBIA AVE,N MAIN ST,W COLUMBIA AVE,28.30960569,-81.40358226
649,N MAIN ST AND W CYPRESS ST,N MAIN ST,W CYPRESS ST,28.30620943,-81.40380587
650,N MAIN ST AND W ORANGE ST,N MAIN ST,W ORANGE ST,28.30282318,-81.40381884
651,N MAIN ST AND W OAK ST,N MAIN ST,W OAK ST,28.30046111,-81.40382214
652,W OAK ST AND N ROSE AVE,W OAK ST,N ROSE AVE,28.30081393,-81.4121893
653,W OAK ST AND OAK COMMONS BLVD,W OAK ST,OAK COMMONS BLVD,28.30082366,-81.40966031
654,S THACKER AVE AND PATRICK ST,S THACKER AVE,PATRICK ST,28.28965737,-81.42419684
655,DENN JOHN LN AND OLD BOGGY CREEK RD,DENN JOHN LN,OLD BOGGY CREEK RD,28.30516282,-81.3790566
656,E OSCEOLA PKY AND PLUMWOOD CIR,E OSCEOLA PKY,PLUMWOOD CIR,28.34245471,-81.37723976
657,FLORIDA PKY AND CORENA CT,FLORIDA PKY,CORENA CT,28.32739191,-81.35253063
658,W IRLO BRONSON MEM HWY AND CELEBRATION AVE,W IRLO BRONSON MEM HWY,CELEBRATION AVE,28.332603,-81.52711736
659,W IRLO BRONSON MEM HWY AND SCOTT BLVD,W IRLO BRONSON MEM HWY,SCOTT BLVD,28.33273293,-81.49455096
660,N ORANGE BLOSSOM TRL AND MARY LOUIS LN,N ORANGE BLOSSOM TRL,MARY LOUIS LN,28.34593678,-81.40361702
661,N ORANGE BLOSSOM TRL AND W DONEGAN AVE,N ORANGE BLOSSOM TRL,W DONEGAN AVE,28.31915165,-81.40384372
662,PLEASANT HILL RD AND OAK HAMMOCK PRESERVE BLVD,PLEASANT HILL RD,OAK HAMMOCK PRESERVE BLVD,28.24615363,-81.43600927
663,E ALTAMONTE DR AND BREWER ST,E ALTAMONTE DR,BREWER ST,28.66323016,-81.34773327
664,E ALTAMONTE DR AND ANCHOR RD,E ALTAMONTE DR,ANCHOR RD,28.66319476,-81.34621303
665,S US HWY 17-92 AND N LAKEWOOD CIR,S US HWY 17-92,N LAKEWOOD CIR,28.64365493,-81.35374333
666,S US HWY 17-92 AND HUDSON LN,S US HWY 17-92,HUDSON LN,28.64535498,-81.35329757
667,W SR 436 AND ACADEMY DR,W SR 436,ACADEMY DR,28.66677402,-81.43159393
668,W SR 436 AND JEWEL DR,W SR 436,JEWEL DR,28.66609368,-81.42814377
669,N US HWY 17-92 AND SR 419,N US HWY 17-92,SR 419,28.73129181,-81.30902842
670,ALAFAYA TRL AND E MCCULLOCH RD,ALAFAYA TRL,E MCCULLOCH RD,28.61321072,-81.20744435
671,W LAKE MARY BLVD AND LAKE EMMA RD,W LAKE MARY BLVD,LAKE EMMA RD,28.75611166,-81.35710661
672,ALAFAYA TRL AND W PALM VALLEY DR,ALAFAYA TRL,W PALM VALLEY DR,28.6149352,-81.20782525
673,ALAFAYA TRL AND RIVERWIND WAY,ALAFAYA TRL,RIVERWIND WAY,28.62392709,-81.20769089
674,E ALTAMONTE DR AND NEWBURYPORT AVE,E ALTAMONTE DR,NEWBURYPORT AVE,28.66329353,-81.35930695
675,WEST TOWN PKY AND BUNNELL RD,WEST TOWN PKY,BUNNELL RD,28.6583984,-81.4228213
676,S SR 434 AND HILLVIEW DR,S SR 434,HILLVIEW DR,28.64824655,-81.41499362
677,S SR 434 AND TRLWOOD DR,S SR 434,TRLWOOD DR,28.65153137,-81.41583859
678,N US HWY 17-92 AND BUSH BLVD,N US HWY 17-92,BUSH BLVD,28.74346366,-81.2977678
679,N US HWY 17-92 AND TROPIC PARK DR,N US HWY 17-92,TROPIC PARK DR,28.74651943,-81.29425967
680,WYMORE RD AND SPANISH TRACE DR,WYMORE RD,SPANISH TRACE DR,28.65169427,-81.39029029
681,ALAFAYA TRL AND E CHAPMAN RD,ALAFAYA TRL,E CHAPMAN RD,28.64212349,-81.20788534
682,E ALTAMONTE DR AND MAITLAND AVE,E ALTAMONTE DR,MAITLAND AVE,28.66297698,-81.36453526
683,E ALTAMONTE DR AND HERMITS TRL,E ALTAMONTE DR,HERMITS TRL,28.66300104,-81.3623653
684,S US HWY 17-92 AND LAKE IRENE DR,S US HWY 17-92,LAKE IRENE DR,28.69696517,-81.32743517
685,S US HWY 17-92 AND SUNBRANCH LN,S US HWY 17-92,SUNBRANCH LN,28.69473991,-81.32764057
686,S US HWY 17-92 AND PINEY RIDGE RD,S US HWY 17-92,PINEY RIDGE RD,28.66774631,-81.33918061
687,S US HWY 17-92 AND DOG TRACK RD,S US HWY 17-92,DOG TRACK RD,28.68277099,-81.33488821
688,E ALTAMONTE DR AND VIA DE LAGO,E ALTAMONTE DR,VIA DE LAGO,28.66320851,-81.34944735
689,E ALTAMONTE DR AND BREWER ST,E ALTAMONTE DR,BREWER ST,28.66349289,-81.34770537
690,W LAKE MARY BLVD AND CRYSTAL DR,W LAKE MARY BLVD,CRYSTAL DR,28.75610378,-81.33812577
691,US HWY 17-92 AND E AIRPORT BLVD,US HWY 17-92,E AIRPORT BLVD,28.77200886,-81.27923178
692,SUMMERLIN AVE AND SUMMERLIN AVE,SUMMERLIN AVE,SUMMERLIN AVE,28.79689295,-81.25227253
693,SUMMERLIN AVE AND MONTEZUMA AVE,SUMMERLIN AVE,MONTEZUMA AVE,28.7994826,-81.2523327
694,W LAKE MARY BLVD AND CRYSTAL DR,W LAKE MARY BLVD,CRYSTAL DR,28.75639426,-81.33741192
695,N US HWY 17-92 AND AMERICANA BLVD,N US HWY 17-92,AMERICANA BLVD,28.76460224,-81.28313007
696,W SR 436 AND JAY DR,W SR 436,JAY DR,28.66167493,-81.39599888
697,N SR 434 AND W SR 436,N SR 434,W SR 436,28.66707513,-81.41890509
698,LOCUST AVE AND E 4TH ST,LOCUST AVE,E 4TH ST,28.80851093,-81.26073721
699,US HWY 17-92 AND FLORIDA ST,US HWY 17-92,FLORIDA ST,28.77533476,-81.27736638
700,E 1ST ST AND SAN CARLOS AVE,E 1ST ST,SAN CARLOS AVE,28.81130059,-81.25607492
701,SUMMERLIN AVE AND CRESCENT ST,SUMMERLIN AVE,CRESCENT ST,28.79672878,-81.25237275
702,SUMMERLIN AVE AND WYNNEWOOD DR,SUMMERLIN AVE,WYNNEWOOD DR,28.7880132,-81.25224088
703,US HWY 17-92 AND W 20TH ST,US HWY 17-92,W 20TH ST,28.7938542,-81.27298834
704,US HWY 17-92 AND W 8TH ST,US HWY 17-92,W 8TH ST,28.80512333,-81.27302617
705,W 1ST ST AND LAUREL AVE,W 1ST ST,LAUREL AVE,28.81165742,-81.27189648
706,W KENNEDY BLVD AND FOREST CITY RD,W KENNEDY BLVD,FOREST CITY RD,28.61851938,-81.41380386
707,FOREST CITY RD AND ALL AMERICAN BLVD,FOREST CITY RD,ALL AMERICAN BLVD,28.61799112,-81.41510545
708,FOREST CITY RD AND WESTON LN,FOREST CITY RD,WESTON LN,28.61237736,-81.41468639
709,W 13TH ST AND MARVIN C ZANDERS AVE,W 13TH ST,MARVIN C ZANDERS AVE,28.66208047,-81.51396968
710,N ORANGE BLOSSOM TRL AND POPE RD,N ORANGE BLOSSOM TRL,POPE RD,28.61789198,-81.4400309
711,N ORANGE BLOSSOM TRL AND CORONA DR,N ORANGE BLOSSOM TRL,CORONA DR,28.61395063,-81.4343864
712,W COLONIAL DR AND TOWNE SQUARE WAY,W COLONIAL DR,TOWNE SQUARE WAY,28.55184338,-81.48670968
713,W COLONIAL DR AND N POWERS DR,W COLONIAL DR,N POWERS DR,28.55228865,-81.46899467
714,W COLONIAL DR AND SPRING WEST RD,W COLONIAL DR,SPRING WEST RD,28.55227252,-81.47145489
715,W COLONIAL DR AND N HIAWASSEE RD,W COLONIAL DR,N HIAWASSEE RD,28.55222184,-81.47936936
716,W COLONIAL DR AND DORSCHER RD,W COLONIAL DR,DORSCHER RD,28.5521932,-81.48316355
717,W COLONIAL DR AND TOWNE SQUARE WAY,W COLONIAL DR,TOWNE SQUARE WAY,28.55214584,-81.48802014
718,W COLONIAL DR AND DORSCHER RD,W COLONIAL DR,DORSCHER RD,28.5518607,-81.48372092
719,W COLONIAL DR AND N HIAWASSEE RD,W COLONIAL DR,N HIAWASSEE RD,28.55187748,-81.47811848
720,W COLONIAL DR AND WALKUP DR,W COLONIAL DR,WALKUP DR,28.55234918,-81.4454064
721,W COLONIAL DR AND WILMER AVE,W COLONIAL DR,WILMER AVE,28.55270133,-81.44911805
722,W COLONIAL DR AND EMERALDA RD,W COLONIAL DR,EMERALDA RD,28.55259164,-81.4545045
723,W COLONIAL DR AND N NOWELL ST,W COLONIAL DR,N NOWELL ST,28.55235488,-81.46385339
724,FOREST CITY RD AND JUERGENSEN DR,FOREST CITY RD,JUERGENSEN DR,28.62775054,-81.41485543
725,FOREST CITY RD AND PEMBROOK DR,FOREST CITY RD,PEMBROOK DR,28.63313962,-81.41487996
726,EDGEWATER DR AND HAMBELTON AVE,EDGEWATER DR,HAMBELTON AVE,28.60871864,-81.41345107
727,EDGEWATER DR AND ALPHA DR,EDGEWATER DR,ALPHA DR,28.60768057,-81.41216606
728,EDGEWATER DR AND ALOHA ST,EDGEWATER DR,ALOHA ST,28.60649368,-81.41068939
729,LEE RD AND GODDARD AVE,LEE RD,GODDARD AVE,28.6057379,-81.40121919
730,LEE RD AND ALLOWAY ST,LEE RD,ALLOWAY ST,28.60813415,-81.38985706
731,SILVER STAR RD AND WILLOW BEND BLVD,SILVER STAR RD,WILLOW BEND BLVD,28.57814616,-81.44578811
732,SILVER STAR RD AND FLORENCE ANN CT,SILVER STAR RD,FLORENCE ANN CT,28.57776773,-81.47313176
733,SILVER STAR RD AND GOOD HOMES RD,SILVER STAR RD,GOOD HOMES RD,28.5777023,-81.49930922
734,SILVER STAR RD AND ENVIRONS BLVD,SILVER STAR RD,ENVIRONS BLVD,28.57750387,-81.4724146
735,SILVER STAR RD AND PARK HAMILTON BLVD,SILVER STAR RD,PARK HAMILTON BLVD,28.57766564,-81.4650552
736,SILVER STAR RD AND ASHLAND BLVD,SILVER STAR RD,ASHLAND BLVD,28.577843,-81.44550852
737,SILVER STAR RD AND LE HAVRE BLVD,SILVER STAR RD,LE HAVRE BLVD,28.57787075,-81.44349927
738,N PINE HILLS RD AND PIPES O THE GLEN WAY,N PINE HILLS RD,PIPES O THE GLEN WAY,28.58538958,-81.45141769
739,EDGWATER DR AND W PAR ST,EDGWATER DR,W PAR ST,28.58265735,-81.39013189
740,OLD WINTER GARDEN RD AND QUINTARD AVE,OLD WINTER GARDEN RD,QUINTARD AVE,28.54069008,-81.45024157
741,S ORANGE AVE AND LARUE AVE,S ORANGE AVE,LARUE AVE,28.47854476,-81.37158883
742,S ORANGE AVE AND E PIERCE AVE,S ORANGE AVE,E PIERCE AVE,28.46902277,-81.36822535
743,S ORANGE AVE AND E LANCASTER RD,S ORANGE AVE,E LANCASTER RD,28.46458924,-81.36755427
744,S ORANGE AVE AND GLENROSE RD,S ORANGE AVE,GLENROSE RD,28.46212278,-81.3668559
745,LANDSTAR BLVD AND GREENWAY PROFESSIONAL CT,LANDSTAR BLVD,GREENWAY PROFESSIONAL CT,28.37226792,-81.36656879
746,S ORANGE AVE AND PARKLINE BLVD,S ORANGE AVE,PARKLINE BLVD,28.44738052,-81.36433554
747,MERCY DR AND OLD WINTER GARDEN RD,MERCY DR,OLD WINTER GARDEN RD,28.54773516,-81.43041899
748,AMERICANA BLVD AND ARPANA DR,AMERICANA BLVD,ARPANA DR,28.48682059,-81.41157
749,S RIO GRANDE AVE AND 44TH ST,S RIO GRANDE AVE,44TH ST,28.49890362,-81.40093527
750,S RIO GRANDE AVE AND 42ND ST,S RIO GRANDE AVE,42ND ST,28.50110575,-81.40096625
751,S RIO GRANDE AVE AND 40TH ST,S RIO GRANDE AVE,40TH ST,28.50251843,-81.40097073
752,W OAK RIDGE RD AND BROOKGREEN AVE,W OAK RIDGE RD,BROOKGREEN AVE,28.47212351,-81.43082707
753,MCCOY RD AND S ORANGE AVE,MCCOY RD,S ORANGE AVE,28.4508767,-81.36280871
754,TURKEY LAKE RD AND W SAND LAKE RD,TURKEY LAKE RD,W SAND LAKE RD,28.44955105,-81.47800581
755,S ORANGE BLOSSOM TRL AND CENTRAL FLORIDA PKY,S ORANGE BLOSSOM TRL,CENTRAL FLORIDA PKY,28.40658571,-81.40481901
756,SILVER STAR RD AND BON AIR DR,SILVER STAR RD,BON AIR DR,28.57773326,-81.48866361
757,SILVER STAR RD AND N APOPKA VINELAND RD,SILVER STAR RD,N APOPKA VINELAND RD,28.5776958,-81.49155329
758,S ORANGE BLOSSOM TRL AND PREMIER ROW,S ORANGE BLOSSOM TRL,PREMIER ROW,28.46129842,-81.3975516
759,S ORANGE BLOSSOM TRL AND W LANCASTER RD,S ORANGE BLOSSOM TRL,W LANCASTER RD,28.46438179,-81.39676143
760,S ORANGE BLOSSOM TRL AND W LANCASTER RD,S ORANGE BLOSSOM TRL,W LANCASTER RD,28.46662833,-81.396544
761,S ORANGE BLOSSOM TRL AND W OAK RIDGE RD,S ORANGE BLOSSOM TRL,W OAK RIDGE RD,28.47348188,-81.39646892
762,S ORANGE BLOSSOM TRL AND WAKULLA WAY,S ORANGE BLOSSOM TRL,WAKULLA WAY,28.47661002,-81.39653436
763,S ORANGE BLOSSOM TRL AND FALCON TRACE BLVD,S ORANGE BLOSSOM TRL,FALCON TRACE BLVD,28.3624803,-81.40425933
764,S ORANGE BLOSSOM TRL AND HERITAGE VILLAGE LN,S ORANGE BLOSSOM TRL,HERITAGE VILLAGE LN,28.39446242,-81.40441284
765,S ORANGE BLOSSOM TRL AND WELLFLEET CT,S ORANGE BLOSSOM TRL,WELLFLEET CT,28.39802271,-81.40442651
766,S ORANGE BLOSSOM TRL AND WATER BRIDGE BLVD,S ORANGE BLOSSOM TRL,WATER BRIDGE BLVD,28.40403504,-81.40445445
767,S ORANGE BLOSSOM TRL AND BARLEY CLUB DR,S ORANGE BLOSSOM TRL,BARLEY CLUB DR,28.41175426,-81.40449954
768,S ORANGE BLOSSOM TRL AND CARONI DR,S ORANGE BLOSSOM TRL,CARONI DR,28.41485221,-81.40451485
769,S ORANGE BLOSSOM TRL AND TAFT VINELAND RD,S ORANGE BLOSSOM TRL,TAFT VINELAND RD,28.41883108,-81.40453485
770,S ORANGE BLOSSOM TRL AND CONSULATE DR,S ORANGE BLOSSOM TRL,CONSULATE DR,28.42792074,-81.40453286
771,S ORANGE BLOSSOM TRL AND JORDAN AVE,S ORANGE BLOSSOM TRL,JORDAN AVE,28.4584882,-81.39835465
772,S ORANGE BLOSSOM TRL AND DUSKIN AVE,S ORANGE BLOSSOM TRL,DUSKIN AVE,28.48020025,-81.39656618
773,S ORANGE BLOSSOM TRL AND REDMAN ST,S ORANGE BLOSSOM TRL,REDMAN ST,28.48798498,-81.39663826
774,S ORANGE BLOSSOM TRL AND HOLDEN AVE,S ORANGE BLOSSOM TRL,HOLDEN AVE,28.49383087,-81.39667391
775,S ORANGE BLOSSOM TRL AND 41ST ST,S ORANGE BLOSSOM TRL,41ST ST,28.50208419,-81.39673757
776,S ORANGE BLOSSOM TRL AND 39TH ST,S ORANGE BLOSSOM TRL,39TH ST,28.50338486,-81.39673376
777,S ORANGE BLOSSOM TRL AND 43RD ST,S ORANGE BLOSSOM TRL,43RD ST,28.50011332,-81.39702039
778,S ORANGE BLOSSOM TRL AND LAKE JESSAMINE DR,S ORANGE BLOSSOM TRL,LAKE JESSAMINE DR,28.47967084,-81.3968428
779,S ORANGE BLOSSOM TRL AND DOSS AVE,S ORANGE BLOSSOM TRL,DOSS AVE,28.46856896,-81.396772
780,S ORANGE BLOSSOM TRL AND W LANCASTER RD,S ORANGE BLOSSOM TRL,W LANCASTER RD,28.46460972,-81.39717369
781,S ORANGE BLOSSOM TRL AND LA QUINTA DR,S ORANGE BLOSSOM TRL,LA QUINTA DR,28.44122405,-81.40354085
782,S ORANGE BLOSSOM TRL AND PEPPER MILL BLVD,S ORANGE BLOSSOM TRL,PEPPER MILL BLVD,28.39023472,-81.40474767
783,S ORANGE BLOSSOM TRL AND GINGER MILL BLVD,S ORANGE BLOSSOM TRL,GINGER MILL BLVD,28.38671959,-81.40474544
784,S ORANGE BLOSSOM TRL AND DEERFIELD BLVD,S ORANGE BLOSSOM TRL,DEERFIELD BLVD,28.38075568,-81.40470465
785,S ORANGE BLOSSOM TRL AND STABLE DR,S ORANGE BLOSSOM TRL,STABLE DR,28.3829151,-81.40434486
786,S JOHN YOUNG PKY AND LAZLO LN,S JOHN YOUNG PKY,LAZLO LN,28.40395706,-81.42493052
787,SILVER STAR RD AND LAUREL HILL DR,SILVER STAR RD,LAUREL HILL DR,28.57745945,-81.48470898
788,SILVER STAR RD AND LAUREL HILL DR,SILVER STAR RD,LAUREL HILL DR,28.5777681,-81.48434749
789,EDGEWATER DR AND SATEL DR,EDGEWATER DR,SATEL DR,28.60590527,-81.40965386
790,N PINE HILLS RD AND FERDINAND DR,N PINE HILLS RD,FERDINAND DR,28.56608459,-81.45102423
791,INTERNATIONAL DR AND HAWAIIAN CT,INTERNATIONAL DR,HAWAIIAN CT,28.42293856,-81.46035178
792,S RIO GRANDE AVE AND W OAK RIDGE RD,S RIO GRANDE AVE,W OAK RIDGE RD,28.47324794,-81.40075492
793,S JOHN YOUNG PKY AND TAFT VINELAND RD,S JOHN YOUNG PKY,TAFT VINELAND RD,28.41597417,-81.42300745
794,WESTWOOD BLVD AND CENTRAL FLORIDA PKY,WESTWOOD BLVD,CENTRAL FLORIDA PKY,28.40867802,-81.4719959
795,S JOHN YOUNG PKY AND ZAHARIAS DR,S JOHN YOUNG PKY,ZAHARIAS DR,28.356985,-81.41987522
796,LEE RD AND DIPLOMAT CIR,LEE RD,DIPLOMAT CIR,28.607523,-81.38837519
797,LEE RD AND ALLOWAY ST,LEE RD,ALLOWAY ST,28.6084872,-81.39025216
798,LEE RD AND KINGSWOOD DR,LEE RD,KINGSWOOD DR,28.60595525,-81.39870399
799,LEE RD AND EGGLESTON AVE,LEE RD,EGGLESTON AVE,28.60550866,-81.40479256
800,LEE RD AND CTLAND ST,LEE RD,CTLAND ST,28.60416968,-81.40680052
801,S TEXAS AVE AND HOLDEN AVE,S TEXAS AVE,HOLDEN AVE,28.49410045,-81.40921485
802,SILVER STAR RD AND WOODHAVEN CT,SILVER STAR RD,WOODHAVEN CT,28.57765826,-81.50204554
803,SILVER STAR RD AND WOODHAVEN CT,SILVER STAR RD,WOODHAVEN CT,28.57742699,-81.50202845
804,N PINE HILLS RD AND DOLORES DR,N PINE HILLS RD,DOLORES DR,28.56161395,-81.44993904
805,S JOHN YOUNG PKY AND CATHY ST,S JOHN YOUNG PKY,CATHY ST,28.49807352,-81.41762475
806,S JOHN YOUNG PKY AND MILLENIA BLVD,S JOHN YOUNG PKY,MILLENIA BLVD,28.49377003,-81.41764939
807,S JOHN YOUNG PKY AND WHISPER LAKES BLVD,S JOHN YOUNG PKY,WHISPER LAKES BLVD,28.39638027,-81.42530762
808,S JOHN YOUNG PKY AND CRYSTAL CREEK BLVD,S JOHN YOUNG PKY,CRYSTAL CREEK BLVD,28.38811566,-81.42524385
809,S JOHN YOUNG PKY AND MENTA ST,S JOHN YOUNG PKY,MENTA ST,28.38908498,-81.42481346
810,S JOHN YOUNG PKY AND CENTRAL FLORIDA PKY,S JOHN YOUNG PKY,CENTRAL FLORIDA PKY,28.41095472,-81.42376624
811,S JOHN YOUNG PKY AND W OAK RIDGE RD,S JOHN YOUNG PKY,W OAK RIDGE RD,28.47717523,-81.41735915
812,S JOHN YOUNG PKY AND CATHY ST,S JOHN YOUNG PKY,CATHY ST,28.49764206,-81.41730017
813,S JOHN YOUNG PKY AND 36TH ST,S JOHN YOUNG PKY,36TH ST,28.50567074,-81.41735891
814,S JOHN YOUNG PKY AND TOWN LOOP BLVD,S JOHN YOUNG PKY,TOWN LOOP BLVD,28.37716689,-81.42603771
815,S JOHN YOUNG PKY AND SUBSTATION RD,S JOHN YOUNG PKY,SUBSTATION RD,28.37695995,-81.42560955
816,LEE RD AND EGGLESTON AVE,LEE RD,EGGLESTON AVE,28.60532124,-81.40450702
817,E MAIN ST AND EDGEWOOD DR,E MAIN ST,EDGEWOOD DR,28.67321266,-81.50384816
818,E MAIN ST AND S FOREST AVE,E MAIN ST,S FOREST AVE,28.6729894,-81.50681297
819,S PARK AVE AND E 2ND ST,S PARK AVE,E 2ND ST,28.67505326,-81.50957103
820,N LAKE DESTINY RD AND MAITLAND CENTER PKY,N LAKE DESTINY RD,MAITLAND CENTER PKY,28.63326267,-81.39069781
821,MAITLAND CENTER PKY AND WINDERLEY PL,MAITLAND CENTER PKY,WINDERLEY PL,28.63462003,-81.39547876
822,LAKE AVE AND S ORLANDO AVE,LAKE AVE,S ORLANDO AVE,28.618439,-81.36679308
823,W KENNEDY BLVD AND DEACON JONES BLVD,W KENNEDY BLVD,DEACON JONES BLVD,28.61846052,-81.39383597
824,S ORLANDO AVE AND S MAITLAND AVE,S ORLANDO AVE,S MAITLAND AVE,28.62245733,-81.36427208
825,N ORLANDO AVE AND MAYO AVE,N ORLANDO AVE,MAYO AVE,28.63624024,-81.35943063
826,ORANGE AVE AND S DENNING DR,ORANGE AVE,S DENNING DR,28.58879839,-81.36143567
827,S ORLANDO AVE AND ELVIN AVE,S ORLANDO AVE,ELVIN AVE,28.61069181,-81.36546144
828,N DENNING DR AND W SWOOPE AVE,N DENNING DR,W SWOOPE AVE,28.60169761,-81.36120374
829,N DENNING DR AND SYMONDS AVE,N DENNING DR,SYMONDS AVE,28.59863738,-81.3611417
830,W FAIRBANKS AVE AND S NEW YORK AVE,W FAIRBANKS AVE,S NEW YORK AVE,28.59325725,-81.35322295
831,ORANGE AVE AND MINNESOTA AVE,ORANGE AVE,MINNESOTA AVE,28.58915643,-81.36130194
832,ALOMA AVE AND LANDER RD,ALOMA AVE,LANDER RD,28.60040246,-81.32536635
833,ORANGE AVE AND CYPRESS AVE,ORANGE AVE,CYPRESS AVE,28.58701375,-81.36352616
834,ALOMA AVE AND N PHELPS AVE,ALOMA AVE,N PHELPS AVE,28.60053543,-81.331435
835,ALOMA AVE AND SHEPHERD AVE,ALOMA AVE,SHEPHERD AVE,28.60050568,-81.33247974
836,ALOMA AVE AND JO AL CA AVE,ALOMA AVE,JO AL CA AVE,28.60038749,-81.33667698
837,ALOMA AVE AND CORTLAND AVE,ALOMA AVE,CORTLAND AVE,28.60035494,-81.33810067
838,E FAIRBANKS AVE AND CHAPMAN AVE,E FAIRBANKS AVE,CHAPMAN AVE,28.59395215,-81.34939
839,OSCEOLA AVE AND OLLIE AVE,OSCEOLA AVE,OLLIE AVE,28.59544483,-81.34533652
840,ALOMA AVE AND FLETCHER PL,ALOMA AVE,FLETCHER PL,28.60025137,-81.33522385
841,ALOMA AVE AND SYLVAN DR,ALOMA AVE,SYLVAN DR,28.60032395,-81.33259304
842,NORTH LN AND WATCH HILL RD,NORTH LN,WATCH HILL RD,28.59643451,-81.44672433
843,ALL AMERICAN BLVD AND N ORANGE BLOSSOM TRL,ALL AMERICAN BLVD,N ORANGE BLOSSOM TRL,28.6096136,-81.42483301
844,N ORANGE BLOSSOM TRL AND TRAYLOR BLVD,N ORANGE BLOSSOM TRL,TRAYLOR BLVD,28.57431288,-81.40656106
845,N ORANGE BLOSSOM TRL AND TRAYLOR BLVD,N ORANGE BLOSSOM TRL,TRAYLOR BLVD,28.57325349,-81.40640566
846,W COLONIAL DR AND DR BUICK AVE,W COLONIAL DR,DR BUICK AVE,28.55249072,-81.42706274
847,W COLONIAL DR AND N GOLDWYN AVE,W COLONIAL DR,N GOLDWYN AVE,28.55296334,-81.41721994
848,UNIVERSITY BLVD AND N FORSYTH RD,UNIVERSITY BLVD,N FORSYTH RD,28.59764645,-81.29843572
849,UNIVERSITY BLVD AND SUTTON PL BLVD,UNIVERSITY BLVD,SUTTON PL BLVD,28.59741118,-81.29244942
850,UNIVERSITY BLVD AND N DEAN RD,UNIVERSITY BLVD,N DEAN RD,28.59733728,-81.24375774
851,UNIVERSITY BLVD AND LAKE MIRA DR,UNIVERSITY BLVD,LAKE MIRA DR,28.59995025,-81.27011034
852,ALOMA AVE AND ELLENDALE DR,ALOMA AVE,ELLENDALE DR,28.60326165,-81.31295787
853,N SEMORAN BLVD AND ALOMA AVE,N SEMORAN BLVD,ALOMA AVE,28.60603002,-81.3076477
854,N SEMORAN BLVD AND OLEANDER DR,N SEMORAN BLVD,OLEANDER DR,28.5537373,-81.31089025
855,E COLONIAL DR AND MELANIE DR,E COLONIAL DR,MELANIE DR,28.56814754,-81.25793843
856,E COLONIAL DR AND SELMA AVE,E COLONIAL DR,SELMA AVE,28.5681486,-81.25591331
857,E COLONIAL DR AND MIAMI RD,E COLONIAL DR,MIAMI RD,28.56860185,-81.24876284
858,N ALAFAYA TRL AND RHODE ISLAND ST,N ALAFAYA TRL,RHODE ISLAND ST,28.57134211,-81.20756009
859,N ALAFAYA TRL AND COCHIN ST,N ALAFAYA TRL,COCHIN ST,28.57461853,-81.20759897
860,N ALAFAYA TRL AND HUNTSMAN LN,N ALAFAYA TRL,HUNTSMAN LN,28.57644363,-81.20762071
861,N ALAFAYA TRL AND CORAL REEF DR,N ALAFAYA TRL,CORAL REEF DR,28.58054547,-81.2075779
862,N ALAFAYA TRL AND SCIENCE DR,N ALAFAYA TRL,SCIENCE DR,28.58352138,-81.20756323
863,N ALAFAYA TRL AND MACKAY BLVD,N ALAFAYA TRL,MACKAY BLVD,28.58828074,-81.20826977
864,N ALAFAYA TRL AND WALDEN WOODS DR,N ALAFAYA TRL,WALDEN WOODS DR,28.59018423,-81.20885086
865,N ALAFAYA TRL AND MENDEL DR,N ALAFAYA TRL,MENDEL DR,28.59168037,-81.20881651
866,N ALAFAYA TRL AND PASTEUR DR,N ALAFAYA TRL,PASTEUR DR,28.59551031,-81.20800011
867,N ALAFAYA TRL AND WALDEN WOODS DR,N ALAFAYA TRL,WALDEN WOODS DR,28.59046349,-81.20924104
868,N ALAFAYA TRL AND ALAFAYA WOODS CT,N ALAFAYA TRL,ALAFAYA WOODS CT,28.58516158,-81.20791914
869,N ALAFAYA TRL AND GRADUATE DR,N ALAFAYA TRL,GRADUATE DR,28.57694954,-81.20796562
870,N ALAFAYA TRL AND RHODE ISLAND ST,N ALAFAYA TRL,RHODE ISLAND ST,28.57119828,-81.20790148
871,E COLONIAL DR AND N DEAN RD,E COLONIAL DR,N DEAN RD,28.56928007,-81.24558205
872,E COLONIAL DR AND WESTFALL DR,E COLONIAL DR,WESTFALL DR,28.56905666,-81.24788995
873,E COLONIAL DR AND MON REPOSE LN,E COLONIAL DR,MON REPOSE LN,28.56849508,-81.25755054
874,N FORSYTH RD AND GREEN NEEDLE DR,N FORSYTH RD,GREEN NEEDLE DR,28.59150954,-81.29630744
875,N GOLDENROD RD AND E COLONIAL DR,N GOLDENROD RD,E COLONIAL DR,28.57014562,-81.28627123
876,S CHICKASAW TRL AND LAKE UNDERHILL RD,S CHICKASAW TRL,LAKE UNDERHILL RD,28.54003342,-81.27716563
877,PERSHING AVE AND COMMANDER DR,PERSHING AVE,COMMANDER DR,28.49883453,-81.30584003
878,S CHICKASAW TRL AND SPARROWHAWK CT,S CHICKASAW TRL,SPARROWHAWK CT,28.50736877,-81.26907335
879,SILVER STAR RD AND LAKE ST,SILVER STAR RD,LAKE ST,28.57763822,-81.50482349
880,E SILVER STAR RD AND LAKE JOHIO DR,E SILVER STAR RD,LAKE JOHIO DR,28.5738454,-81.51544478
881,SILVER STAR RD AND COVENTRY LN,SILVER STAR RD,COVENTRY LN,28.57740811,-81.5040957
882,LEE RD AND BEARD AVE,LEE RD,BEARD AVE,28.60602408,-81.37611865
883,LEE RD AND FREMONT AVE,LEE RD,FREMONT AVE,28.60595073,-81.38196701
884,LEE RD AND N WYMORE RD,LEE RD,N WYMORE RD,28.60565797,-81.38475688
885,E ROBINSON ST AND N HAMPTON AVE,E ROBINSON ST,N HAMPTON AVE,28.54594826,-81.3563967
886,E ROBINSON ST AND N HYER AVE,E ROBINSON ST,N HYER AVE,28.54583709,-81.36629761
887,E ROBINSON ST AND N EOLA DR,E ROBINSON ST,N EOLA DR,28.54580904,-81.36976193
888,E ROBINSON ST AND N ROSALIND AVE,E ROBINSON ST,N ROSALIND AVE,28.5457769,-81.37387531
889,S SEMORAN BLVD AND BEAU BARTON PL,S SEMORAN BLVD,BEAU BARTON PL,28.53734229,-81.31067736
890,S SEMORAN BLVD AND STONEWALL JACKSON RD,S SEMORAN BLVD,STONEWALL JACKSON RD,28.5334513,-81.31063158
891,GATLIN AVE AND DIXIE BELLE DR,GATLIN AVE,DIXIE BELLE DR,28.49531977,-81.31291155
892,S SEMORAN BLVD AND CASA BLANCA LN,S SEMORAN BLVD,CASA BLANCA LN,28.53159031,-81.31033576
893,S SEMORAN BLVD AND KISLIN PL,S SEMORAN BLVD,KISLIN PL,28.53666734,-81.31039322
894,S SEMORAN BLVD AND DOGWOOD DR,S SEMORAN BLVD,DOGWOOD DR,28.54159773,-81.31045905
895,W COLONIAL DR AND PUTNAM AVE,W COLONIAL DR,PUTNAM AVE,28.55309975,-81.38806352
896,W COLONIAL DR AND N WESTMORELAND DR,W COLONIAL DR,N WESTMORELAND DR,28.55308956,-81.39358344
897,W COLONIAL DR AND N WESTMORELAND DR,W COLONIAL DR,N WESTMORELAND DR,28.55289417,-81.39248017
898,W COLONIAL DR AND EDGEWATER DR,W COLONIAL DR,EDGEWATER DR,28.55287606,-81.38785053
899,W COLONIAL DR AND PEACHTREE RD,W COLONIAL DR,PEACHTREE RD,28.55287839,-81.38527363
900,W COLONIAL DR AND LEXINGTON AVE,W COLONIAL DR,LEXINGTON AVE,28.55292683,-81.38385536
901,W COLONIAL DR AND N RIO GRANDE AVE,W COLONIAL DR,N RIO GRANDE AVE,28.55282149,-81.40132459
902,W COLONIAL DR AND SPRINGDALE RD,W COLONIAL DR,SPRINGDALE RD,28.55286004,-81.39764281
903,E COLONIAL DR AND N MAGNOLIA AVE,E COLONIAL DR,N MAGNOLIA AVE,28.55302281,-81.37732927
904,E COLONIAL DR AND HIGHLAND AVE,E COLONIAL DR,HIGHLAND AVE,28.55303076,-81.37394161
905,E COLONIAL DR AND CATHCART AVE,E COLONIAL DR,CATHCART AVE,28.55307576,-81.37078784
906,E COLONIAL DR AND SHINE AVE,E COLONIAL DR,SHINE AVE,28.5530463,-81.36210655
907,E COLONIAL DR AND ALTALOMA AVE,E COLONIAL DR,ALTALOMA AVE,28.55303332,-81.35783074
908,E COLONIAL DR AND HERNDON AVE,E COLONIAL DR,HERNDON AVE,28.55358391,-81.33716628
909,E COLONIAL DR AND IRVINGTON AVE,E COLONIAL DR,IRVINGTON AVE,28.55342913,-81.34646823
910,E COLONIAL DR AND GARDEN PLZ,E COLONIAL DR,GARDEN PLZ,28.55328751,-81.35379926
911,E COLONIAL DR AND ALTALOMA AVE,E COLONIAL DR,ALTALOMA AVE,28.55324501,-81.35822769
912,E COLONIAL DR AND N FERN CREEK AVE,E COLONIAL DR,N FERN CREEK AVE,28.55323559,-81.36089898
913,E COLONIAL DR AND N SUMMERLIN AVE,E COLONIAL DR,N SUMMERLIN AVE,28.55330875,-81.36896947
914,E COLONIAL DR AND HIGHLAND AVE,E COLONIAL DR,HIGHLAND AVE,28.55325771,-81.37406592
915,W SOUTH ST AND CHAPMAN CT,W SOUTH ST,CHAPMAN CT,28.53839101,-81.3857437
916,W CENTRLAL BLVD AND N PARRAMORE AVE,W CENTRLAL BLVD,N PARRAMORE AVE,28.54210065,-81.38879314
917,W PRINCETON ST AND UNIVERSITY DR,W PRINCETON ST,UNIVERSITY DR,28.57129855,-81.38531836
918,W CENTRLAL BLVD AND S PARRAMORE AVE,W CENTRLAL BLVD,S PARRAMORE AVE,28.54192249,-81.38873004
919,W CENTRLAL BLVD AND S BRYAN AVE,W CENTRLAL BLVD,S BRYAN AVE,28.54194138,-81.38420089
920,W WASHINGTON ST AND BEGGS AVE,W WASHINGTON ST,BEGGS AVE,28.54392333,-81.38388464
921,W WASHINGTON ST AND N WESTMORELAND DR,W WASHINGTON ST,N WESTMORELAND DR,28.54390869,-81.3929956
922,W WASHINGTON ST AND N ORANGE BLOSSOM TRL,W WASHINGTON ST,N ORANGE BLOSSOM TRL,28.54396934,-81.39700623
923,W WASHINGTON ST AND N TERRY AVE,W WASHINGTON ST,N TERRY AVE,28.54381184,-81.38671763
924,EDGEWATER DR AND RUGBY ST,EDGEWATER DR,RUGBY ST,28.57371728,-81.38958823
925,N PARRAMORE AVE AND W ROBINSON ST,N PARRAMORE AVE,W ROBINSON ST,28.54548542,-81.38914389
926,S ORANGE AVE AND S LUCERNE CIR W,S ORANGE AVE,S LUCERNE CIR W,28.53316145,-81.37684796
927,S ORANGE AVE AND STURTEVANT ST,S ORANGE AVE,STURTEVANT ST,28.52436838,-81.3765435
928,S ORANGE AVE AND LAKE BEAUTY DR,S ORANGE AVE,LAKE BEAUTY DR,28.52252925,-81.37653669
929,S ORANGE AVE AND PAGE ST,S ORANGE AVE,PAGE ST,28.5160351,-81.37652754
930,S ORANGE AVE AND SOUTHGATE COMMERCE BLVD,S ORANGE AVE,SOUTHGATE COMMERCE BLVD,28.50573831,-81.37637601
931,S ORANGE AVE AND SUDDATH DR,S ORANGE AVE,SUDDATH DR,28.50415653,-81.37639688
932,S ORANGE AVE AND BUTLER DR,S ORANGE AVE,BUTLER DR,28.50705732,-81.37612814
933,S ORANGE AVE AND E CRYSTAL LAKE ST,S ORANGE AVE,E CRYSTAL LAKE ST,28.51501018,-81.37624363
934,S ORANGE AVE AND E KALEY ST,S ORANGE AVE,E KALEY ST,28.5207199,-81.37627548
935,S ORANGE AVE AND E HOLLENBECK ST,S ORANGE AVE,E HOLLENBECK ST,28.52233538,-81.37628764
936,DELNY AVE AND N LUCERNE CIR E,DELNY AVE,N LUCERNE CIR E,28.53579182,-81.37480815
937,W MILLER ST AND KUHL AVE,W MILLER ST,KUHL AVE,28.52382941,-81.37791912
938,W MICHIGAN ST AND JOSEPH ST,W MICHIGAN ST,JOSEPH ST,28.51297293,-81.37971109
939,W CHURCH ST AND S PARRAMORE AVE,W CHURCH ST,S PARRAMORE AVE,28.54022524,-81.38959467
940,W MICHIGAN ST AND SUNRISE CT,W MICHIGAN ST,SUNRISE CT,28.51274689,-81.38195779
941,N BUMBY AVE AND E CENTRAL BLVD,N BUMBY AVE,E CENTRAL BLVD,28.54281449,-81.351766
942,N BUMBY AVE AND E ROBINSON ST,N BUMBY AVE,E ROBINSON ST,28.54623618,-81.35184612
943,CURRY FORD RD AND CONWAY RD,CURRY FORD RD,CONWAY RD,28.52416406,-81.33025073
944,CURRY FORD RD AND FREDRICA DR,CURRY FORD RD,FREDRICA DR,28.52423164,-81.31927712
945,CURRY FORD RD AND GADSEN BLVD,CURRY FORD RD,GADSEN BLVD,28.52445809,-81.31556975
946,CURRY FORD RD AND SHORES ALLEY,CURRY FORD RD,SHORES ALLEY,28.52429201,-81.34134177
947,N PRIMROSE DR AND E ROBINSON ST,N PRIMROSE DR,E ROBINSON ST,28.54575562,-81.34773274
948,N BUMBY AVE AND E JEFFERSON ST,N BUMBY AVE,E JEFFERSON ST,28.54480151,-81.35203514
949,W GORE ST AND PLYMOUTH AVE,W GORE ST,PLYMOUTH AVE,28.53117609,-81.39883327
950,S ORANGE BLOSSOM TRL AND W SOUTH ST,S ORANGE BLOSSOM TRL,W SOUTH ST,28.53809794,-81.39711363
951,S ORANGE BLOSSOM TRL AND W CHURCH ST,S ORANGE BLOSSOM TRL,W CHURCH ST,28.53996477,-81.39713538
952,W CENTRLAL BLVD AND PERSHING PL,W CENTRLAL BLVD,PERSHING PL,28.54190798,-81.39442055
953,S ORANGE BLOSSOM TRL AND COLYER ST,S ORANGE BLOSSOM TRL,COLYER ST,28.53723667,-81.39733488
954,E SOUTH ST AND S ROSALIND AVE,E SOUTH ST,S ROSALIND AVE,28.53849337,-81.37545032
955,S BUMBY AVE AND E CHURCH ST,S BUMBY AVE,E CHURCH ST,28.54041602,-81.35176996
956,N BUMBY AVE AND E WASHINGTON ST,N BUMBY AVE,E WASHINGTON ST,28.54448135,-81.35179963
957,LAKE UNDERHILL RD AND GASTON FOSTER RD,LAKE UNDERHILL RD,GASTON FOSTER RD,28.53877715,-81.32543704
958,DIXIE BELLE DR AND FORZLEY ST,DIXIE BELLE DR,FORZLEY ST,28.52238179,-81.31444488
959,LAKE UNDERHILL RD AND GASTON FOSTER  RD,LAKE UNDERHILL RD,GASTON FOSTER  RD,28.53882829,-81.3244701
960,LAKE UNDERHILL RD AND GASTON FOSTER RD,LAKE UNDERHILL RD,GASTON FOSTER RD,28.53811015,-81.32783866
961,CONWAY RD AND ASHFORD BLVD,CONWAY RD,ASHFORD BLVD,28.51048344,-81.33103819
962,CONWAY RD AND ASHFORD BLVD,CONWAY RD,ASHFORD BLVD,28.51037202,-81.33080482
963,W CENTRLAL BLVD AND HALBE AVE,W CENTRLAL BLVD,HALBE AVE,28.54260991,-81.40405858
964,W CENTRLAL BLVD AND S ORANGE BLOSSOM TRL,W CENTRLAL BLVD,S ORANGE BLOSSOM TRL,28.54193126,-81.3977302
965,E JACKSON ST AND LAKE AVE,E JACKSON ST,LAKE AVE,28.53908591,-81.3729965
966,S OSCEOLA AVE AND E PINE ST,S OSCEOLA AVE,E PINE ST,28.54093135,-81.37133891
967,N GARLAND AVE AND W CENTRAL BLVD,N GARLAND AVE,W CENTRAL BLVD,28.54241033,-81.38169326
968,N MILLS AVE AND E PRINCETON ST,N MILLS AVE,E PRINCETON ST,28.5689182,-81.3645974
969,S SEMORAN BLVD AND ABERCORN DR,S SEMORAN BLVD,ABERCORN DR,28.48823068,-81.309968
970,MERCY DR AND FAIRVILLA RD,MERCY DR,FAIRVILLA RD,28.55581565,-81.43054231
971,N MILLS AVE AND LAKE HIGHLAND DR,N MILLS AVE,LAKE HIGHLAND DR,28.56087177,-81.36434744
972,N MILLS AVE AND VIRGINIA DR,N MILLS AVE,VIRGINIA DR,28.56356654,-81.36458481
973,N MILLS AVE AND WEBER ST,N MILLS AVE,WEBER ST,28.55843041,-81.3643368
974,S PARRAMORE AVE AND COLUMBIA ST,S PARRAMORE AVE,COLUMBIA ST,28.5277631,-81.38895222
975,E COLONIAL DR AND SHINE AVE,E COLONIAL DR,SHINE AVE,28.55324488,-81.36214998
976,N ROSALIND AVE AND EOLA PKY,N ROSALIND AVE,EOLA PKY,28.54481968,-81.3758208
977,E CENTRLAL BLVD AND N SUMMERLIN AVE,E CENTRLAL BLVD,N SUMMERLIN AVE,28.54219436,-81.36814111
978,S ORANGE AVE AND CANONILUS CT,S ORANGE AVE,CANONILUS CT,28.5300918,-81.37663386
979,W CHURCH ST AND S TERRY AVE,W CHURCH ST,S TERRY AVE,28.54026499,-81.38734504
980,W PRINCETON ST AND ELIZABETH AVE,W PRINCETON ST,ELIZABETH AVE,28.57111299,-81.38500536
981,CORRINE DR AND OSPREY AVE,CORRINE DR,OSPREY AVE,28.56778225,-81.33759319
982,BENNETT RD AND BOBOLINK LN,BENNETT RD,BOBOLINK LN,28.56633051,-81.33383776
983,S ORANGE AVE AND E JACKSON ST,S ORANGE AVE,E JACKSON ST,28.5396536,-81.37909817
984,S PARRAMORE AVE AND COLUMBIA ST,S PARRAMORE AVE,COLUMBIA ST,28.52733684,-81.38877068
985,S PARRAMORE AVE AND CITRUS ST,S PARRAMORE AVE,CITRUS ST,28.52924278,-81.38879547
986,N MAGNOLIA AVE AND E WASHINGTON ST,N MAGNOLIA AVE,E WASHINGTON ST,28.5437313,-81.37757178
987,N MAGNOLIA AVE AND E CENTRAL BLVD,N MAGNOLIA AVE,E CENTRAL BLVD,28.54237234,-81.37756711
988,N MAGNOLIA AVE AND E CENTRAL BLVD,N MAGNOLIA AVE,E CENTRAL BLVD,28.54245634,-81.37744511
989,E CHURCH ST AND S MAGNOLIA AVE,E CHURCH ST,S MAGNOLIA AVE,28.54031596,-81.37762324
990,S MAGNOLIA AVE AND E SOUTH ST,S MAGNOLIA AVE,E SOUTH ST,28.53866907,-81.37747598
991,E SOUTH ST AND S ORANGE AVE,E SOUTH ST,S ORANGE AVE,28.53849848,-81.37859629
992,W AMELIA ST AND RONALD BLOCKER AVE,W AMELIA ST,RONALD BLOCKER AVE,28.54896102,-81.3841358
993,DIXIE BELLE DR AND GATLIN AVE,DIXIE BELLE DR,GATLIN AVE,28.49578492,-81.31422464
994,W AMELIA ST AND N WESTMORELAND DR,W AMELIA ST,N WESTMORELAND DR,28.54926526,-81.39281271
995,W AMELIA ST AND N WESTMORELAND DR,W AMELIA ST,N WESTMORELAND DR,28.54945966,-81.39299345
996,W AMELIA ST AND N ORANGE BLOSSOM TRL,W AMELIA ST,N ORANGE BLOSSOM TRL,28.54939772,-81.39717077
997,N ORANGE BLOSSOM TRL AND W COLONIAL DR,N ORANGE BLOSSOM TRL,W COLONIAL DR,28.55262425,-81.39555911
998,W AMELIA ST AND HAMES AVE,W AMELIA ST,HAMES AVE,28.54923835,-81.39676449
999,S BUMBY AVE AND E GORE ST,S BUMBY AVE,E GORE ST,28.53117248,-81.35170607
1000,N ORANGE AVE AND WALL ST,N ORANGE AVE,WALL ST,28.54274291,-81.37912716
1001,S SEMORAN BLVD AND PERSHING AVE,S SEMORAN BLVD,PERSHING AVE,28.49983498,-81.31002009
1002,S SEMORAN BLVD AND FIVE FLAGS BLVD,S SEMORAN BLVD,FIVE FLAGS BLVD,28.5097113,-81.31007987
1003,S SEMORAN BLVD AND E GRANT ST,S SEMORAN BLVD,E GRANT ST,28.5165828,-81.31058178
1004,DAHLIA DR AND S SEMORAN BLVD,DAHLIA DR,S SEMORAN BLVD,28.54576555,-81.30951972
1005,TURKEY LAKE RD AND PANTHER WAY,TURKEY LAKE RD,PANTHER WAY,28.46789043,-81.47509052
1006,COLUMBIA ST AND HENTON LN,COLUMBIA ST,HENTON LN,28.52709677,-81.42638261
1007,S IVEY LN AND W CYPRESS ST,S IVEY LN,W CYPRESS ST,28.53176128,-81.43445048
1008,CONROY RD AND SOUTHGATE DR,CONROY RD,SOUTHGATE DR,28.49658883,-81.43939589
1009,ORANGE CENTER BLVD AND DOBY AVE,ORANGE CENTER BLVD,DOBY AVE,28.53206473,-81.41188757
1010,BRUTON BLVD AND HAILLES PL,BRUTON BLVD,HAILLES PL,28.51778458,-81.42588773
1011,BRUTON BLVD AND COVINGTON ST,BRUTON BLVD,COVINGTON ST,28.51934595,-81.42591393
1012,BRUTON BLVD AND CEPEDA ST,BRUTON BLVD,CEPEDA ST,28.52351381,-81.4261532
1013,BRUTON BLVD AND WELLS ST,BRUTON BLVD,WELLS ST,28.52181855,-81.42613794
1014,BRUTON BLVD AND CHANDLER ST,BRUTON BLVD,CHANDLER ST,28.51514821,-81.42610917
1015,BRUTON BLVD AND PRINCE HALL BLVD,BRUTON BLVD,PRINCE HALL BLVD,28.51187799,-81.42581672
1016,RALEIGH ST AND DEEROCK DR,RALEIGH ST,DEEROCK DR,28.52773811,-81.44683635
1017,VINELAND RD AND WINDHOVER DR,VINELAND RD,WINDHOVER DR,28.48276353,-81.45649788
1018,VINELAND RD AND WINDHOVER DR,VINELAND RD,WINDHOVER DR,28.48304386,-81.4575798
1019,METRLOCENTER BLVD AND VALENCIA COMMUNITY COLLEGE DR,METRLOCENTER BLVD,VALENCIA COMMUNITY COLLEGE DR,28.51970908,-81.46834937
1020,S IVEY LN AND MALIBU ST,S IVEY LN,MALIBU ST,28.53698102,-81.43425769
1021,S ORANGE AVE AND OAKWATER CIR,S ORANGE AVE,OAKWATER CIR,28.50058984,-81.37630988
1022,HOFFNER AVE AND KINGFISH ST,HOFFNER AVE,KINGFISH ST,28.48044014,-81.32778652
1023,CONWAY RD AND ANDERSON RD,CONWAY RD,ANDERSON RD,28.50223527,-81.33103022
1024,HOFFNER AVE AND CONWAY RD,HOFFNER AVE,CONWAY RD,28.48064309,-81.32941541
1025,CONWAY RD AND SIMMONS RD,CONWAY RD,SIMMONS RD,28.48756432,-81.33069481
1026,S ORANGE BLOSSOM TRL AND W MICHIGAN ST,S ORANGE BLOSSOM TRL,W MICHIGAN ST,28.51440756,-81.39688397
1027,S ORANGE BLOSSOM TRL AND 23RD ST,S ORANGE BLOSSOM TRL,23RD ST,28.51783782,-81.39692323
1028,S ORANGE BLOSSOM TRL AND W KALEY AVE,S ORANGE BLOSSOM TRL,W KALEY AVE,28.5199317,-81.39694075
1029,S ORANGE BLOSSOM TRL AND W MILLER AVE,S ORANGE BLOSSOM TRL,W MILLER AVE,28.52355799,-81.3969595
1030,S ORANGE BLOSSOM TRL AND GRAND ST,S ORANGE BLOSSOM TRL,GRAND ST,28.52604251,-81.39695915
1031,S ORANGE BLOSSOM TRL AND 23RD ST,S ORANGE BLOSSOM TRL,23RD ST,28.51782454,-81.39717508
1032,S ORANGE BLOSSOM TRL AND 29TH ST,S ORANGE BLOSSOM TRL,29TH ST,28.51294919,-81.39712855
1033,S ORANGE BLOSSOM TRL AND W KALEY AVE,S ORANGE BLOSSOM TRL,W KALEY AVE,28.5202579,-81.39719239
1034,S ORANGE AVE AND JAMAICA LN,S ORANGE AVE,JAMAICA LN,28.48736755,-81.37260779
1035,S ORANGE AVE AND W MARY JESS RD,S ORANGE AVE,W MARY JESS RD,28.4805193,-81.37207168
1036,S ORANGE AVE AND GEM ST,S ORANGE AVE,GEM ST,28.47695421,-81.37114345
1037,S ORANGE AVE AND PRESCOTT DR,S ORANGE AVE,PRESCOTT DR,28.48934051,-81.37308085
1038,S ORANGE AVE AND LAKE GATLIN RD,S ORANGE AVE,LAKE GATLIN RD,28.49164518,-81.37364445
1039,MILLENIA BLVD AND RADEBAUGH WAY,MILLENIA BLVD,RADEBAUGH WAY,28.48501649,-81.44105781
1040,JEFF FUQUA BLVD S AND QUICK TURNAROUND RD,JEFF FUQUA BLVD S,QUICK TURNAROUND RD,28.43230593,-81.30647917
1041,S SEMORAN BLVD AND BENT PINE DR,S SEMORAN BLVD,BENT PINE DR,28.47417321,-81.31029879
1042,MARIGOLD AVE AND WALNUT ST,MARIGOLD AVE,WALNUT ST,28.13158206,-81.47041601
1043,S JOHN YOUNG PKY AND W OAK RIDGE RD,S JOHN YOUNG PKY,W OAK RIDGE RD,28.47054334,-81.41728451
1044,E JACKSON ST AND S ROSALIND AVE,E JACKSON ST,S ROSALIND AVE,28.53904994,-81.37518701
1045,E LIVINGSTON ST AND N MAGNOLIA AVE,E LIVINGSTON ST,N MAGNOLIA AVE,28.54758856,-81.37740138
1046,S ORANGE BLOSSOM TRL AND TENPOINT LN,S ORANGE BLOSSOM TRL,TENPOINT LN,28.37485693,-81.40467948
1047,S JOHN YOUNG PKY AND N THACKER AVE,S JOHN YOUNG PKY,N THACKER AVE,28.34881253,-81.4198676
1048,VICK RD AND SUN BLUFF LN,VICK RD,SUN BLUFF LN,28.69926035,-81.52557547
1049,W CENTRLAL BLVD AND N WESTMORELAND DR,W CENTRLAL BLVD,N WESTMORELAND DR,28.54207712,-81.39219386
1050,S ORANGE AVE AND COLUMBIA ST,S ORANGE AVE,COLUMBIA ST,28.52774089,-81.37634088
1051,W AMELIA ST AND N PARRAMORE AVE,W AMELIA ST,N PARRAMORE AVE,28.54921588,-81.38943162
1052,S ORANGE BLOSSOM TRL AND WHISPER LAKES BLVD,S ORANGE BLOSSOM TRL,WHISPER LAKES BLVD,28.39920245,-81.40477244
1053,S ORANGE AVE AND E BUCHANON AVE,S ORANGE AVE,E BUCHANON AVE,28.46757424,-81.36787107
1054,W MARTIN ST AND VICK RD,W MARTIN ST,VICK RD,28.69313504,-81.52546519
1055,N HIAWASSEE RD AND CRESCENT RIDGE RD,N HIAWASSEE RD,CRESCENT RIDGE RD,28.61871469,-81.47608024
1056,S APOPKA BLVD AND WOODSTOCK DR,S APOPKA BLVD,WOODSTOCK DR,28.65627831,-81.48847272
1057,S ORANGE BLOSSOM TRL AND HERITAGE VILLAGE LN,S ORANGE BLOSSOM TRL,HERITAGE VILLAGE LN,28.39259907,-81.40440376
1058,OLD WINTER GARDEN RD AND WINTER RIDGE CIR,OLD WINTER GARDEN RD,WINTER RIDGE CIR,28.53924,-81.47825943
1059,EDGEWATER DR AND LEE RD,EDGEWATER DR,LEE RD,28.60317707,-81.40656216
1060,EDGEWATER DR AND THISTLEDOWN DR,EDGEWATER DR,THISTLEDOWN DR,28.59791624,-81.40058028
1061,W COLONIAL DR AND WINDTREE LN,W COLONIAL DR,WINDTREE LN,28.55122718,-81.58044395
1062,W COLONIAL DR AND DANIELS RD,W COLONIAL DR,DANIELS RD,28.55087193,-81.58386165
1063,W COLONIAL DR AND S PARK AVE,W COLONIAL DR,S PARK AVE,28.55118269,-81.59257558
1064,W GORE ST AND S HUGHEY AVE,W GORE ST,S HUGHEY AVE,28.53099262,-81.38273554
1065,LOTUS LANDING BLVD AND RENAISSANCE POINTE,LOTUS LANDING BLVD,RENAISSANCE POINTE,28.6474264,-81.41686017
1066,N POINCIANA BLVD AND W IRLO BRONSON MEM HWY,N POINCIANA BLVD,W IRLO BRONSON MEM HWY,28.333901,-81.48968688
1067,N POINCIANA BLVD AND W IRLO BRONSON MEM HWY,N POINCIANA BLVD,W IRLO BRONSON MEM HWY,28.33398108,-81.48941355
1068,W PRINCETON ST AND N JOHN YOUNG PKY,W PRINCETON ST,N JOHN YOUNG PKY,28.56987575,-81.41784991
1069,CORRINE DR AND EAST WINTER PARK RD,CORRINE DR,EAST WINTER PARK RD,28.56774472,-81.34562308
1070,WALNUT ST AND FAIRWAY RD,WALNUT ST,FAIRWAY RD,28.12865831,-81.46484825
1071,W SR 434 AND SPRING CENTRE SOUTH BLVD,W SR 434,SPRING CENTRE SOUTH BLVD,28.6873924,-81.39477278
1072,S ORANGE BLOSSOM TRL AND WATER BRIDGE BLVD,S ORANGE BLOSSOM TRL,WATER BRIDGE BLVD,28.40475105,-81.4047976
1073,SR 415 AND STERLING MEADOWS WAY,SR 415,STERLING MEADOWS WAY,28.79208307,-81.21327702
1074,VICK RD AND SANCTUARY GOLF PL,VICK RD,SANCTUARY GOLF PL,28.70308672,-81.52543648
1075,S POINCIANA BLVD AND OCTAVIA BLVD,S POINCIANA BLVD,OCTAVIA BLVD,28.23460484,-81.48708817
1076,SILVER STAR RD AND N HIAWASSEE RD,SILVER STAR RD,N HIAWASSEE RD,28.5777427,-81.47670601
1077,POSNER BLVD AND US 27,POSNER BLVD,US 27,28.22659706,-81.64336114
1078,POSNER BLVD AND US 27,POSNER BLVD,US 27,28.22700052,-81.64363955
1079,S HUGHEY AVE AND W CENTRAL BLVD,S HUGHEY AVE,W CENTRAL BLVD,28.54174791,-81.3829854
1080,N US HWY 17-92 AND AMERICANA BLVD,N US HWY 17-92,AMERICANA BLVD,28.76093894,-81.28543747
1081,N MILLS AVE AND WOODWARD ST,N MILLS AVE,WOODWARD ST,28.55396986,-81.3645843
1082,W COLONIAL DR AND WINTER GARDEN VINELAND RD,W COLONIAL DR,WINTER GARDEN VINELAND RD,28.55086796,-81.58672061
1083,E ROBINSON ST AND N GRAHAM AVE,E ROBINSON ST,N GRAHAM AVE,28.54603129,-81.34949011
1084,W OAK RIDGE RD AND ADRIANA AVE,W OAK RIDGE RD,ADRIANA AVE,28.47196127,-81.45375174
1085,CONROY RD AND SOUTHGATE DR,CONROY RD,SOUTHGATE DR,28.49704624,-81.44220629
1086,S PARRAMORE AVE AND CARTER ST,S PARRAMORE AVE,CARTER ST,28.53484996,-81.3888821
1087,MICHIGAN AVE AND E CARROLL ST,MICHIGAN AVE,E CARROLL ST,28.32652834,-81.39139332
1088,BOGGY CREEK RD AND INTERIOR ST,BOGGY CREEK RD,INTERIOR ST,28.30430538,-81.36511555
1089,WATERFORD LAKES PKY AND LAKE CYPRESS CIR,WATERFORD LAKES PKY,LAKE CYPRESS CIR,28.55760153,-81.20527733
1090,LEE RD AND COUNTRY CLUB DR,LEE RD,COUNTRY CLUB DR,28.60582028,-81.37229025
1091,W MICHIGAN ST AND ALAMO DR,W MICHIGAN ST,ALAMO DR,28.51458126,-81.38753393
1092,S ORANGE AVE AND E MURIEL ST,S ORANGE AVE,E MURIEL ST,28.51715596,-81.37624362
1093,RALEIGH ST AND LESCOT LN,RALEIGH ST,LESCOT LN,28.52794107,-81.44351801
1094,S NEW YORK AVE AND W NEW ENGLAND AVE,S NEW YORK AVE,W NEW ENGLAND AVE,28.59610624,-81.35284167
1095,OLIVA ST AND S FANFAIR AVE,OLIVA ST,S FANFAIR AVE,28.53856356,-81.43668257
1096,L B MCLEOD RD AND GARDENIA AVE,L B MCLEOD RD,GARDENIA AVE,28.50907537,-81.42222669
1097,CLARCONA RD AND GILLIAM RD,CLARCONA RD,GILLIAM RD,28.62617991,-81.4980944
1098,N PINE HILLS RD AND BALBOA DR,N PINE HILLS RD,BALBOA DR,28.5591528,-81.44918428
1099,S IVEY LN AND W JACKSON ST,S IVEY LN,W JACKSON ST,28.53988647,-81.43455912
1100,W WELCH RD AND WINGED FOOD DR,W WELCH RD,WINGED FOOD DR,28.70607624,-81.51947849
1101,E 17TH ST AND LONGLEAF DR,E 17TH ST,LONGLEAF DR,28.24247803,-81.2998523
1102,EMMETT ST AND CTHOUSE SQ,EMMETT ST,CTHOUSE SQ,28.29164271,-81.41156877
1103,E 10TH ST AND GRAPE AVE,E 10TH ST,GRAPE AVE,28.2494947,-81.26644223
1104,N US HWY 17-92 AND BUSH BLVD,N US HWY 17-92,BUSH BLVD,28.74364277,-81.29705926
1105,MANDARIN DR AND PUEBLO ST,MANDARIN DR,PUEBLO ST,28.45940925,-81.44620549
1106,N DENNING DR AND W SWOOPE AVE,N DENNING DR,W SWOOPE AVE,28.6021043,-81.36103687
1107,W WEBSTER AVE AND GALLOWAY DR,W WEBSTER AVE,GALLOWAY DR,28.60402811,-81.36402005
1108,S LAKEMONT AVE AND WHITEHALL DR,S LAKEMONT AVE,WHITEHALL DR,28.58649134,-81.32771709
1109,WYMORE RD AND SPANISH TRACE DR,WYMORE RD,SPANISH TRACE DR,28.6546992,-81.39029386
1110,N ALAFAYA TRL AND UNIVERSITY BLVD,N ALAFAYA TRL,UNIVERSITY BLVD,28.59746787,-81.20754401
1111,E ROBINSON ST AND N HYER AVE,E ROBINSON ST,N HYER AVE,28.54572531,-81.3663764
1112,E COLONIAL DR AND N FERN CREEK AVE,E COLONIAL DR,N FERN CREEK AVE,28.55301059,-81.35976318
1113,EDGEWATER DR AND W KING ST,EDGEWATER DR,W KING ST,28.57729772,-81.38964154
1114,KOA ST AND MONTEREY RD,KOA ST,MONTEREY RD,28.15652037,-81.48155291
1115,EMMETT ST AND N VERNON AVE,EMMETT ST,N VERNON AVE,28.29185871,-81.41076638
1116,PLEASANT HILL RD AND STEWART BLVD,PLEASANT HILL RD,STEWART BLVD,28.21145256,-81.4403357
1117,EMMETT ST AND N RANDOLPH AVE,EMMETT ST,N RANDOLPH AVE,28.2918403,-81.41520916
1118,FLORIDA PKY AND ROYAL PALM DR,FLORIDA PKY,ROYAL PALM DR,28.3277364,-81.36421179
1119,N ALAFAYA TRL AND PASTEUR DR,N ALAFAYA TRL,PASTEUR DR,28.59529547,-81.2076781
1120,N ALAFAYA TRL AND MENDEL DR,N ALAFAYA TRL,MENDEL DR,28.59193145,-81.20913642
1121,N ALAFAYA TRL AND COCHIN ST,N ALAFAYA TRL,COCHIN ST,28.57516987,-81.20795073
1122,E COLONIAL DR AND CRESCENT BLVD,E COLONIAL DR,CRESCENT BLVD,28.56716992,-81.20895171
1123,N ALAFAYA TRL AND CORPORATE BLVD,N ALAFAYA TRL,CORPORATE BLVD,28.60716545,-81.20776848
1124,N DOVERPLUM AVE AND SAN REMO RD,N DOVERPLUM AVE,SAN REMO RD,28.15155578,-81.45340577
1125,S ORANGE AVE AND STRATEMEYER DR,S ORANGE AVE,STRATEMEYER DR,28.48335612,-81.37212476
1126,STATE RD 535 AND HOTEL PLZ BLVD,STATE RD 535,HOTEL PLZ BLVD,28.38002645,-81.5048723
1127,N PARK AVE AND E MAGNOLIA ST,N PARK AVE,E MAGNOLIA ST,28.67892543,-81.50956371
1128,N US HWY 17-92 AND WYNDHAM CREST BLVD,N US HWY 17-92,WYNDHAM CREST BLVD,28.75347352,-81.28867651
1129,N PINE HILLS RD AND LIMING AVE,N PINE HILLS RD,LIMING AVE,28.60103927,-81.45137536
1130,N HIAWASSEE RD AND ANOKA DR,N HIAWASSEE RD,ANOKA DR,28.57186009,-81.47610726
1131,N HIAWASSEE RD AND HENNEPIN BLVD,N HIAWASSEE RD,HENNEPIN BLVD,28.5675771,-81.47607428
1132,OLD WINTER GARDEN RD AND S HASTINGS ST,OLD WINTER GARDEN RD,S HASTINGS ST,28.53807594,-81.45913941
1133,S ORANGE AVE AND OFFICE CT,S ORANGE AVE,OFFICE CT,28.45428871,-81.36464558
1134,S ORANGE AVE AND TAFT VINELAND RD,S ORANGE AVE,TAFT VINELAND RD,28.42273409,-81.3713529
